[
  {
    "cuisine": "Indian",
    "id": "ZZQkvnRoO5YfCAlOjd2heA",
    "name": "Diwali Indian Cuisine",
    "rating": 4.9,
    "address": "1221 Fulton St, Brooklyn, NY 11216",
    "phone": "+17184400693",
    "latitude": 40.680704,
    "longitude": -73.952627,
    "zipcode": "11216",
    "totalReviews": 20
  },
  {
    "cuisine": "Indian",
    "id": "IysZ64t48AedrhWfz3WJGQ",
    "name": "Cloves Indian Cuisine",
    "rating": 4.8,
    "address": "66 Madison Ave, New York, NY 10016",
    "phone": "+16463989444",
    "latitude": 40.74367,
    "longitude": -73.98612,
    "zipcode": "10016",
    "totalReviews": 116
  },
  {
    "cuisine": "Indian",
    "id": "wBwTAHhfSm5hpJU-InCUdw",
    "name": "Red Onion",
    "rating": 4.8,
    "address": "277 East 10th St, New York, NY 10009",
    "phone": "+16466091355",
    "latitude": 40.728276,
    "longitude": -73.982727,
    "zipcode": "10009",
    "totalReviews": 103
  },
  {
    "cuisine": "Indian",
    "id": "XLEdQl5s1bO5Iu43W_c96Q",
    "name": "Muna",
    "rating": 4.7,
    "address": "152 East 46th St, New York, NY 10017",
    "phone": "+16463987960",
    "latitude": 40.753509,
    "longitude": -73.973515,
    "zipcode": "10017",
    "totalReviews": 120
  },
  {
    "cuisine": "Indian",
    "id": "RhOnXRbQ5OXONTLdjQci6g",
    "name": "Hyderabadi Zaiqa",
    "rating": 4.7,
    "address": "184 Lexington Avn 10016, New York, NY 10016",
    "phone": "+16464540033",
    "latitude": 40.74490108858555,
    "longitude": -73.9811604,
    "zipcode": "10016",
    "totalReviews": 7
  },
  {
    "cuisine": "Indian",
    "id": "u_CnSp9FieAuWqhvCn-A2A",
    "name": "Spice Mantra",
    "rating": 4.7,
    "address": "1047 2nd Ave, New York, NY 10022",
    "phone": "+12125729900",
    "latitude": 40.75825,
    "longitude": -73.96633,
    "zipcode": "10022",
    "totalReviews": 104
  },
  {
    "cuisine": "Indian",
    "id": "t6PzD4uzBOfyCLcd_lT8cQ",
    "name": "Sathi",
    "rating": 4.7,
    "address": "216 3rd Ave, New York, NY 10003",
    "phone": "+12122603700",
    "latitude": 40.73621,
    "longitude": -73.98528,
    "zipcode": "10003",
    "totalReviews": 360
  },
  {
    "cuisine": "Indian",
    "id": "_7BGw3YFNOTzP1Www3zB7g",
    "name": "Mughlai Grill",
    "rating": 4.6,
    "address": "6 Clinton St, New York, NY 10002",
    "phone": "+12125332828",
    "latitude": 40.7210905,
    "longitude": -73.9840446,
    "zipcode": "10002",
    "totalReviews": 612
  },
  {
    "cuisine": "Indian",
    "id": "UiG3MlLDMMZp31XDBM2kvA",
    "name": "Karahi Indian Cuisine",
    "rating": 4.6,
    "address": "803 9th Ave, New York, NY 10019",
    "phone": "+12124591515",
    "latitude": 40.765667,
    "longitude": -73.987595,
    "zipcode": "10019",
    "totalReviews": 132
  },
  {
    "cuisine": "Indian",
    "id": "3Lzq6WS7q0Cz9_RinS00OA",
    "name": "Mughlai Indian Cuisine",
    "rating": 4.6,
    "address": "489 Columbus Ave, New York, NY 10024",
    "phone": "",
    "latitude": 40.78477804313809,
    "longitude": -73.97319038849837,
    "zipcode": "10024",
    "totalReviews": 31
  },
  {
    "cuisine": "Indian",
    "id": "-mxZcmP2TtgIMmfNmxWMQA",
    "name": "Javitri",
    "rating": 4.6,
    "address": "132 E 61st St, New York, NY 10065",
    "phone": "+12122067575",
    "latitude": 40.76358346058178,
    "longitude": -73.96760314428282,
    "zipcode": "10065",
    "totalReviews": 25
  },
  {
    "cuisine": "Indian",
    "id": "GNPne4Il-itbn2sLbvMo1g",
    "name": "Angel Indian Restaurant",
    "rating": 4.5,
    "address": "7414 37th Rd, Jackson Heights, NY 11372",
    "phone": "+13478480097",
    "latitude": 40.7473069226623,
    "longitude": -73.8912814123575,
    "zipcode": "11372",
    "totalReviews": 567
  },
  {
    "cuisine": "Indian",
    "id": "7DzfrwNwXmbS6OhYxPKfHQ",
    "name": "Kanyakumari",
    "rating": 4.5,
    "address": "20 E 17th St, New York, NY 10003",
    "phone": "+12126410401",
    "latitude": 40.737313,
    "longitude": -73.991263,
    "zipcode": "10003",
    "totalReviews": 117
  },
  {
    "cuisine": "Indian",
    "id": "x0k5kFArHLijdY8-NEQ7Xg",
    "name": "Bengal Tiger ",
    "rating": 4.5,
    "address": "234W 56th St, New York, NY 10019",
    "phone": "+12122652703",
    "latitude": 40.765673188349595,
    "longitude": -73.98265750332172,
    "zipcode": "10019",
    "totalReviews": 2477
  },
  {
    "cuisine": "Indian",
    "id": "NKI1VvfXYluRjnq4S6yEuw",
    "name": "Divya's Kitchen",
    "rating": 4.5,
    "address": "25 1st Ave, New York, NY 10003",
    "phone": "+12124774834",
    "latitude": 40.7237699,
    "longitude": -73.9884755125743,
    "zipcode": "10003",
    "totalReviews": 515
  },
  {
    "cuisine": "Indian",
    "id": "ECUTH1VOWxZ9GwfzblMKzA",
    "name": "Mughlai Indian Cuisine",
    "rating": 4.4,
    "address": "255 W 55th St, New York, NY 10019",
    "phone": "+16468700555",
    "latitude": 40.765394,
    "longitude": -73.983272,
    "zipcode": "10019",
    "totalReviews": 208
  },
  {
    "cuisine": "Indian",
    "id": "o1odYIRiARdSTRsRI776Fg",
    "name": "Bombay Grill House",
    "rating": 4.4,
    "address": "1015 Manhattan Ave, Brooklyn, NY 11222",
    "phone": "+17183892211",
    "latitude": 40.733572,
    "longitude": -73.955208,
    "zipcode": "11222",
    "totalReviews": 49
  },
  {
    "cuisine": "Indian",
    "id": "x-T3WaLPnbVrxc-ruzFhyQ",
    "name": "Mughlai Indian Cuisine",
    "rating": 4.4,
    "address": "120 Cedar St, New York, NY 10006",
    "phone": "+16463988985",
    "latitude": 40.70953534633694,
    "longitude": -74.01278923745791,
    "zipcode": "10006",
    "totalReviews": 86
  },
  {
    "cuisine": "Indian",
    "id": "cJ1Uf4MlR4egrG-lbfh8oA",
    "name": "Spice Symphony Times Square",
    "rating": 4.4,
    "address": "317 W 46th St, New York, NY 10036",
    "phone": "+16466570642",
    "latitude": 40.760281,
    "longitude": -73.988754,
    "zipcode": "10036",
    "totalReviews": 62
  },
  {
    "cuisine": "Indian",
    "id": "iLjrQvbUYPj6NLkalyau0w",
    "name": "Hyderabadi Zaiqa",
    "rating": 4.4,
    "address": "366 W 52 St, New York, NY 10019",
    "phone": "+16469520066",
    "latitude": 40.76439568665357,
    "longitude": -73.9876243,
    "zipcode": "10019",
    "totalReviews": 113
  },
  {
    "cuisine": "Indian",
    "id": "qhXIW0LDT4XsoN2IE6dZHg",
    "name": "Ahimsa",
    "rating": 4.4,
    "address": "204 E 38th St, New York, NY 10016",
    "phone": "+12122282022",
    "latitude": 40.7478959,
    "longitude": -73.9758638,
    "zipcode": "10016",
    "totalReviews": 256
  },
  {
    "cuisine": "Indian",
    "id": "objNX6cuj1JyUijFjw21Qw",
    "name": "Bombay Bistro",
    "rating": 4.4,
    "address": "31 Cornelia St, New York, NY 10014",
    "phone": "+16468503719",
    "latitude": 40.73136,
    "longitude": -74.00253,
    "zipcode": "10014",
    "totalReviews": 309
  },
  {
    "cuisine": "Indian",
    "id": "lxNU-aBq0yPwBDx-i89ahA",
    "name": "Seva Indian Cuisine",
    "rating": 4.4,
    "address": "34-11 30th Ave, Astoria, NY 11103",
    "phone": "+17186264440",
    "latitude": 40.76571,
    "longitude": -73.91839,
    "zipcode": "11103",
    "totalReviews": 1513
  },
  {
    "cuisine": "Indian",
    "id": "ut-560tVcs2g-ZU0Y_qqHQ",
    "name": "Saar Indian Bistro",
    "rating": 4.4,
    "address": "241 W 51st St, New York, NY 10019",
    "phone": "+16466092142",
    "latitude": 40.762754,
    "longitude": -73.984803,
    "zipcode": "10019",
    "totalReviews": 480
  },
  {
    "cuisine": "Indian",
    "id": "A-ert0jDRBfku9ogyW_mEg",
    "name": "Spice Symphony - Midtown East",
    "rating": 4.4,
    "address": "150 E 50th St, New York, NY 10022",
    "phone": "+12123004869",
    "latitude": 40.7558937072754,
    "longitude": -73.9715347290039,
    "zipcode": "10022",
    "totalReviews": 725
  },
  {
    "cuisine": "Indian",
    "id": "raGF9jAO7JOiIbFQ2_bTAg",
    "name": "India at Time Square",
    "rating": 4.4,
    "address": "332 W 44th St, New York, NY 10036",
    "phone": "+16464764356",
    "latitude": 40.75941459798258,
    "longitude": -73.99145881962656,
    "zipcode": "10036",
    "totalReviews": 126
  },
  {
    "cuisine": "Indian",
    "id": "Xqk91WuhMeYS4pedccUYgA",
    "name": "Gazab",
    "rating": 4.4,
    "address": "179 Essex St, New York, NY 10002",
    "phone": "+19173882664",
    "latitude": 40.72191,
    "longitude": -73.98666,
    "zipcode": "10002",
    "totalReviews": 321
  },
  {
    "cuisine": "Indian",
    "id": "7VIUu8ay754GoUYEpsmxOA",
    "name": "Jazba",
    "rating": 4.3,
    "address": "207 2nd Ave, New York, NY 10003",
    "phone": "+16468613343",
    "latitude": 40.731701,
    "longitude": -73.98585,
    "zipcode": "10003",
    "totalReviews": 175
  },
  {
    "cuisine": "Indian",
    "id": "izRJeBfDQYJmd6ibIQ6Mfg",
    "name": "Mughlai Indian Cuisine",
    "rating": 4.3,
    "address": "1724 2nd Ave, New York, NY 10128",
    "phone": "+12127226262",
    "latitude": 40.78002,
    "longitude": -73.94978,
    "zipcode": "10128",
    "totalReviews": 666
  },
  {
    "cuisine": "Indian",
    "id": "9pMhRYYgV7E9L7pzECtJKA",
    "name": "The Drunken Munkey - UES",
    "rating": 4.3,
    "address": "338 E 92nd St, New York, NY 10128",
    "phone": "+16468468986",
    "latitude": 40.78098,
    "longitude": -73.94751,
    "zipcode": "10128",
    "totalReviews": 1463
  },
  {
    "cuisine": "Indian",
    "id": "ZNJ4ij7_xOlKSeMeEh1khA",
    "name": "Rowdy Rooster",
    "rating": 4.3,
    "address": "149 1st Ave, New York, NY 10003",
    "phone": "",
    "latitude": 40.728473350506725,
    "longitude": -73.98500709999999,
    "zipcode": "10003",
    "totalReviews": 270
  },
  {
    "cuisine": "Indian",
    "id": "juAQ4DHCW_24LpV1T1JmBA",
    "name": "Patiala Indian Grill  & Bar",
    "rating": 4.3,
    "address": "240 W 35th St, New York, NY 10001",
    "phone": "+12125648255",
    "latitude": 40.752147,
    "longitude": -73.991864,
    "zipcode": "10001",
    "totalReviews": 62
  },
  {
    "cuisine": "Indian",
    "id": "26RvDcDKxe3wZkAAJ4rALg",
    "name": "Inday",
    "rating": 4.3,
    "address": "630 Lexington Ave, New York, NY 10022",
    "phone": "+13322622629",
    "latitude": 40.759028283479665,
    "longitude": -73.97087139954638,
    "zipcode": "10022",
    "totalReviews": 7
  },
  {
    "cuisine": "Indian",
    "id": "qTJvCBgticMA-opC6P6yzg",
    "name": "Rang",
    "rating": 4.3,
    "address": "11-03 44th Ave, Queens, NY 11101",
    "phone": "+17184069338",
    "latitude": 40.7500749267213,
    "longitude": -73.94893907411615,
    "zipcode": "11101",
    "totalReviews": 32
  },
  {
    "cuisine": "Indian",
    "id": "z2VXX7wGl8XZ6_oo9W3koA",
    "name": "Patiala Indian Grill",
    "rating": 4.3,
    "address": "371 W 34th St, New York, NY 10001",
    "phone": "+12125648255",
    "latitude": 40.7534700430117,
    "longitude": -73.99595067259492,
    "zipcode": "10001",
    "totalReviews": 717
  },
  {
    "cuisine": "Indian",
    "id": "1_pK5aQ47atF50oAKHADhA",
    "name": "Indian Accent",
    "rating": 4.3,
    "address": "123 W 56th St, New York, NY 10019",
    "phone": "+12128428070",
    "latitude": 40.7643344624229,
    "longitude": -73.9787312885132,
    "zipcode": "10019",
    "totalReviews": 793
  },
  {
    "cuisine": "Indian",
    "id": "XKy4Cy4uNgO7rxhH4yFJQQ",
    "name": "Mughlai Indian Cuisine",
    "rating": 4.2,
    "address": "329 3rd Ave, New York, NY 10010",
    "phone": "+12128890909",
    "latitude": 40.7397599,
    "longitude": -73.98226,
    "zipcode": "10010",
    "totalReviews": 495
  },
  {
    "cuisine": "Indian",
    "id": "T1CRoZ-f-hwrjdkBvt7_kg",
    "name": "Indian Tanpura",
    "rating": 4.2,
    "address": "564 Amsterdam Ave, New York, NY 10024",
    "phone": "+12127218700",
    "latitude": 40.78869,
    "longitude": -73.97468,
    "zipcode": "10024",
    "totalReviews": 214
  },
  {
    "cuisine": "Indian",
    "id": "m9Q9x-Hcxp24gZCaTTJY-A",
    "name": "Sahib",
    "rating": 4.2,
    "address": "104 Lexington Ave, New York, NY 10016",
    "phone": "+16465900994",
    "latitude": 40.74232,
    "longitude": -73.9830099,
    "zipcode": "10016",
    "totalReviews": 337
  },
  {
    "cuisine": "Indian",
    "id": "eTzH9lmkmouNlmuJ77i8Ow",
    "name": "Angaar",
    "rating": 4.2,
    "address": "283 Columbus Ave, New York, NY 10023",
    "phone": "+12123934040",
    "latitude": 40.7782,
    "longitude": -73.97802,
    "zipcode": "10023",
    "totalReviews": 227
  },
  {
    "cuisine": "Indian",
    "id": "1KGvtMU7VBcdlvxo2brdQg",
    "name": "Clove Indian Restaurant",
    "rating": 4.2,
    "address": "1592 Amsterdam Ave, Fl 1, New York, NY 10031",
    "phone": "+16469186644",
    "latitude": 40.8213317,
    "longitude": -73.95071933005943,
    "zipcode": "10031",
    "totalReviews": 355
  },
  {
    "cuisine": "Indian",
    "id": "Txm8KtUh9Mn2E7980jTr5g",
    "name": "Dhamaka",
    "rating": 4.1,
    "address": "119 Delancey St, Essex Market, Store  34, New York, NY 10002",
    "phone": "+12122048616",
    "latitude": 40.7180658,
    "longitude": -73.9881304,
    "zipcode": "10002",
    "totalReviews": 746
  },
  {
    "cuisine": "Indian",
    "id": "_nScWpFX3M1K7s30hFEsRw",
    "name": "INDAY",
    "rating": 4.1,
    "address": "1133 Broadway, New York, NY 10010",
    "phone": "+19175215012",
    "latitude": 40.7435240596533,
    "longitude": -73.9891205728054,
    "zipcode": "10010",
    "totalReviews": 444
  },
  {
    "cuisine": "Indian",
    "id": "nQfPwIasXCi8NwNKq65vfw",
    "name": "Mysttik Masaala",
    "rating": 4.1,
    "address": "152 West 52nd St, Inside Urban Space, New York, NY 10019",
    "phone": "+19173063128",
    "latitude": 40.7617745,
    "longitude": -73.98173,
    "zipcode": "10019",
    "totalReviews": 185
  },
  {
    "cuisine": "Indian",
    "id": "FXDMFBM-rV2s5MHzA33d2g",
    "name": "Bombay Grill House",
    "rating": 4.1,
    "address": "764 9th Ave, New York, NY 10019",
    "phone": "+12129771010",
    "latitude": 40.76421,
    "longitude": -73.988101,
    "zipcode": "10019",
    "totalReviews": 348
  },
  {
    "cuisine": "Indian",
    "id": "xWVHj2XNcxEg79Nkb5Zb6Q",
    "name": "Semma",
    "rating": 4.1,
    "address": "60 Greenwich Ave, New York, NY 10011",
    "phone": "+12123738900",
    "latitude": 40.736054206102615,
    "longitude": -74.0005639,
    "zipcode": "10011",
    "totalReviews": 528
  },
  {
    "cuisine": "Indian",
    "id": "Xl-zlT0NLLiKhym88em22w",
    "name": "Adda Indian Canteen",
    "rating": 4.1,
    "address": "31-31 Thomson Ave, Long Island City, NY 11101",
    "phone": "+17184333888",
    "latitude": 40.745011,
    "longitude": -73.934243,
    "zipcode": "11101",
    "totalReviews": 618
  },
  {
    "cuisine": "Indian",
    "id": "JSX6Pk56w4BhgO8eSvCrKg",
    "name": "aRoqa",
    "rating": 4.1,
    "address": "206 9th Ave, New York, NY 10011",
    "phone": "+16466785471",
    "latitude": 40.746065,
    "longitude": -74.001254,
    "zipcode": "10011",
    "totalReviews": 450
  },
  {
    "cuisine": "Indian",
    "id": "VC1udoc_sbHdFaBr0-bMsA",
    "name": "Bombay Chowk",
    "rating": 4.0,
    "address": "1378 1st Ave, New York, NY 10021",
    "phone": "+12122494111",
    "latitude": 40.76880997334686,
    "longitude": -73.95508736811863,
    "zipcode": "10021",
    "totalReviews": 202
  },
  {
    "cuisine": "Indian",
    "id": "QqrEF8_ZQCGi63cL10J5oA",
    "name": "Chola",
    "rating": 4.0,
    "address": "232 E 58th St, New York, NY 10022",
    "phone": "+12126884619",
    "latitude": 40.76026,
    "longitude": -73.96576,
    "zipcode": "10022",
    "totalReviews": 722
  },
  {
    "cuisine": "Thai",
    "id": "EjuI8hyZO4jREWj3BTh8gw",
    "name": "Mr Khao Man Gai",
    "rating": 4.9,
    "address": "28 Jackson Ave, Long Island City , NY 11101",
    "phone": "+13472606438",
    "latitude": 40.74830392185498,
    "longitude": -73.93869594871444,
    "zipcode": "11101",
    "totalReviews": 45
  },
  {
    "cuisine": "Thai",
    "id": "VN1Exxhn9_IDPeQ51tpX0Q",
    "name": "Tam Mai Thai",
    "rating": 4.8,
    "address": "58 W 56th St, Fl 2, New York, NY 10019",
    "phone": "",
    "latitude": 40.7633290235963,
    "longitude": -73.97720329031215,
    "zipcode": "10019",
    "totalReviews": 17
  },
  {
    "cuisine": "Thai",
    "id": "eWSZHH4kfzS5NeNU1CMcyg",
    "name": "Amayar Kitchen",
    "rating": 4.8,
    "address": "111 E Passaic St, Maywood, NJ 07607",
    "phone": "+12018810588",
    "latitude": 40.90072880597357,
    "longitude": -74.05832523553553,
    "zipcode": "07607",
    "totalReviews": 178
  },
  {
    "cuisine": "Thai",
    "id": "Bwq44rsLRFkT0Y2JF0Rpzg",
    "name": "Dagg Thai",
    "rating": 4.8,
    "address": "10 E 39th St, New York, NY 10016",
    "phone": "+19295992632",
    "latitude": 40.75116,
    "longitude": -73.98153,
    "zipcode": "10016",
    "totalReviews": 33
  },
  {
    "cuisine": "Thai",
    "id": "QXgp1Ac10x6yDAPWFIxnbA",
    "name": "Charoen Krung Thai",
    "rating": 4.8,
    "address": "955 2nd Ave, New York, NY 10022",
    "phone": "+19297899456",
    "latitude": 40.755354,
    "longitude": -73.968495,
    "zipcode": "10022",
    "totalReviews": 310
  },
  {
    "cuisine": "Thai",
    "id": "iUEvASoukxI6vrCYWYyK8g",
    "name": "Kati Shop",
    "rating": 4.7,
    "address": "162 E 55th St, New York, NY 10022",
    "phone": "+16468691362",
    "latitude": 40.75899,
    "longitude": -73.96883,
    "zipcode": "10022",
    "totalReviews": 215
  },
  {
    "cuisine": "Thai",
    "id": "KRBRLMYKvTDv2LXHvRIsKA",
    "name": "Kraam",
    "rating": 4.7,
    "address": "254 5th Ave, New York, NY 10001",
    "phone": "+16466784586",
    "latitude": 40.7449999611332,
    "longitude": -73.9874335,
    "zipcode": "10001",
    "totalReviews": 55
  },
  {
    "cuisine": "Thai",
    "id": "LVGDm8ZYSzYom7SYsjgXfQ",
    "name": "SaiTong Thai",
    "rating": 4.7,
    "address": "244 W 48th St, New York, NY 10036",
    "phone": "+16469984089",
    "latitude": 40.76069087692317,
    "longitude": -73.9865615,
    "zipcode": "10036",
    "totalReviews": 269
  },
  {
    "cuisine": "Thai",
    "id": "VJyqoK4a57CH1jQtihTt3Q",
    "name": "LENOXTHAI",
    "rating": 4.7,
    "address": "1217 1st Ave, New York, NY 10065",
    "phone": "+12124666189",
    "latitude": 40.76384,
    "longitude": -73.95911,
    "zipcode": "10065",
    "totalReviews": 61
  },
  {
    "cuisine": "Thai",
    "id": "3Qhu8JvfkMVLjR-Yh3XHsw",
    "name": "Elephant Ear Thai Restaurant",
    "rating": 4.6,
    "address": "690 9th Ave, New York, NY 10036",
    "phone": "+16464788661",
    "latitude": 40.761755,
    "longitude": -73.989803,
    "zipcode": "10036",
    "totalReviews": 41
  },
  {
    "cuisine": "Thai",
    "id": "AHrU1F123QPdVPTCnsy_xA",
    "name": "Chalong",
    "rating": 4.6,
    "address": "749 9th Ave, New York, NY 10019",
    "phone": "+12124666456",
    "latitude": 40.763924,
    "longitude": -73.988883,
    "zipcode": "10019",
    "totalReviews": 529
  },
  {
    "cuisine": "Thai",
    "id": "TMmiudSEF1PIXb8usY5c0Q",
    "name": "Valla Table",
    "rating": 4.6,
    "address": "641 10th Ave, New York, NY 10036",
    "phone": "+12122454601",
    "latitude": 40.761911,
    "longitude": -73.994188,
    "zipcode": "10036",
    "totalReviews": 568
  },
  {
    "cuisine": "Thai",
    "id": "HgEwORU1LJyrFVE_ll_pDg",
    "name": "KAM RAI THAI",
    "rating": 4.6,
    "address": "43-11 28th Ave, Astoria, NY 11103",
    "phone": "+19295220999",
    "latitude": 40.76433,
    "longitude": -73.91072,
    "zipcode": "11103",
    "totalReviews": 235
  },
  {
    "cuisine": "Thai",
    "id": "ASf5l4u-eMhBgNbPy5HLOQ",
    "name": "Tha Phraya",
    "rating": 4.6,
    "address": "1553 2nd Ave, New York, NY 10028",
    "phone": "+16465641456",
    "latitude": 40.77454178196952,
    "longitude": -73.95451304440785,
    "zipcode": "10028",
    "totalReviews": 103
  },
  {
    "cuisine": "Thai",
    "id": "dqjko5ndMGayALuhwq3ghQ",
    "name": "Thailicious",
    "rating": 4.6,
    "address": "71 Clinton St, New York, NY 10002",
    "phone": "+16468820343",
    "latitude": 40.71931,
    "longitude": -73.9851608,
    "zipcode": "10002",
    "totalReviews": 360
  },
  {
    "cuisine": "Thai",
    "id": "dpo_TBvuRi2nEzuVdO4AiQ",
    "name": "Mitr Thai",
    "rating": 4.6,
    "address": "37 W 46th St, New York, NY 10036",
    "phone": "+12124666699",
    "latitude": 40.75688959835714,
    "longitude": -73.9804147,
    "zipcode": "10036",
    "totalReviews": 648
  },
  {
    "cuisine": "Thai",
    "id": "pA_MSyTlJ9ZNGoRyUXi7mw",
    "name": "Kinn",
    "rating": 4.6,
    "address": "601 W 26th St, New York, NY 10001",
    "phone": "",
    "latitude": 40.75154,
    "longitude": -74.00685,
    "zipcode": "10001",
    "totalReviews": 14
  },
  {
    "cuisine": "Thai",
    "id": "kZ5q8Uwxt3MpLcvxEdPeFg",
    "name": "Marwin Thai Restaurant",
    "rating": 4.6,
    "address": "1132 1st Ave, New York, NY 10065",
    "phone": "+19176757698",
    "latitude": 40.76158,
    "longitude": -73.96032,
    "zipcode": "10065",
    "totalReviews": 158
  },
  {
    "cuisine": "Thai",
    "id": "I8lfxFF6ZfwAYbWBIwRSsA",
    "name": "The Thonglor New York",
    "rating": 4.5,
    "address": "789 9th Ave, New York, NY 10019",
    "phone": "+12125615692",
    "latitude": 40.76516,
    "longitude": -73.98795,
    "zipcode": "10019",
    "totalReviews": 205
  },
  {
    "cuisine": "Thai",
    "id": "wEawMdWT7UtZjEmmMTBiGA",
    "name": "Saranrom Thai",
    "rating": 4.5,
    "address": "8110 Broadway, Elmhurst, NY 11373",
    "phone": "+13478080545",
    "latitude": 40.743164864644704,
    "longitude": -73.88364848055883,
    "zipcode": "11373",
    "totalReviews": 309
  },
  {
    "cuisine": "Thai",
    "id": "O1fUmxt3kbV-rnyjBtzAfw",
    "name": "THEP Thai Restaurant",
    "rating": 4.5,
    "address": "1439 2nd Ave, New York, NY 10021",
    "phone": "+12128999995",
    "latitude": 40.77078,
    "longitude": -73.95727,
    "zipcode": "10021",
    "totalReviews": 3290
  },
  {
    "cuisine": "Thai",
    "id": "HuUiXwo2rVKHZDwMeqNfQQ",
    "name": "Malii Gramercy",
    "rating": 4.5,
    "address": "391 2nd Ave, New York, NY 10010",
    "phone": "+16469520078",
    "latitude": 40.73767,
    "longitude": -73.98128,
    "zipcode": "10010",
    "totalReviews": 214
  },
  {
    "cuisine": "Thai",
    "id": "a23bfZBVjIhV32Em4hKHAA",
    "name": "The Buffs",
    "rating": 4.5,
    "address": "1313 40th Ave, Long Island City, NY 11101",
    "phone": "+17183612362",
    "latitude": 40.7554904,
    "longitude": -73.94131574785041,
    "zipcode": "11101",
    "totalReviews": 247
  },
  {
    "cuisine": "Thai",
    "id": "bivrss06gT7E37A0RnnkTw",
    "name": "Bangrak - Thai Restaurant",
    "rating": 4.5,
    "address": "1750 2nd Ave, New York, NY 10128",
    "phone": "+12122898889",
    "latitude": 40.78116,
    "longitude": -73.94913,
    "zipcode": "10128",
    "totalReviews": 89
  },
  {
    "cuisine": "Thai",
    "id": "egDEaHpDumYHzRUZ8JBU-w",
    "name": "Pranakhon Thai Restaurant",
    "rating": 4.5,
    "address": "88 University Pl, New York, NY 10003",
    "phone": "+12127866789",
    "latitude": 40.73369,
    "longitude": -73.99316,
    "zipcode": "10003",
    "totalReviews": 571
  },
  {
    "cuisine": "Thai",
    "id": "-NJL4kZAIc1Z-35IcN1ulQ",
    "name": "Thai Food Near Me",
    "rating": 4.5,
    "address": "625 2nd Ave, New York, NY 10016",
    "phone": "+19174645585",
    "latitude": 40.745104,
    "longitude": -73.976036,
    "zipcode": "10016",
    "totalReviews": 130
  },
  {
    "cuisine": "Thai",
    "id": "-XYp6w50XbZfS90YddS5ew",
    "name": "Soothr",
    "rating": 4.5,
    "address": "204 E 13th St, New York, NY 10003",
    "phone": "+12128449789",
    "latitude": 40.732259,
    "longitude": -73.987363,
    "zipcode": "10003",
    "totalReviews": 1570
  },
  {
    "cuisine": "Thai",
    "id": "-Q8MYIWoE4EsGQtudIOY0w",
    "name": "Bua Thai Ramen & Robata Grill",
    "rating": 4.5,
    "address": "1611 2nd Ave, New York, NY 10028",
    "phone": "+12128797999",
    "latitude": 40.7763615,
    "longitude": -73.95308,
    "zipcode": "10028",
    "totalReviews": 3245
  },
  {
    "cuisine": "Thai",
    "id": "0IFDnYf3bhqxJR6hVrG7Gw",
    "name": "Top Thai Vintage",
    "rating": 4.5,
    "address": "55 Carmine St, New York, NY 10014",
    "phone": "+16466092272",
    "latitude": 40.729907419973344,
    "longitude": -74.00421380395268,
    "zipcode": "10014",
    "totalReviews": 1338
  },
  {
    "cuisine": "Thai",
    "id": "B3_K2kUVbYOU0VaLcj_LTw",
    "name": "Thai Villa",
    "rating": 4.4,
    "address": "5 E 19th St, G Floor, New York, NY 10003",
    "phone": "+12128029999",
    "latitude": 40.73902,
    "longitude": -73.99065,
    "zipcode": "10003",
    "totalReviews": 5152
  },
  {
    "cuisine": "Thai",
    "id": "VoAuIReq_cPUrFwxbWqG_Q",
    "name": "Sala Thai Restaurant",
    "rating": 4.4,
    "address": "307 Amsterdam Ave, New York, NY 10023",
    "phone": "+12124333999",
    "latitude": 40.780049,
    "longitude": -73.980209,
    "zipcode": "10023",
    "totalReviews": 1012
  },
  {
    "cuisine": "Thai",
    "id": "wGFSTTB6b4MHJJUzBnVJeg",
    "name": "Top Thai Greenwich",
    "rating": 4.4,
    "address": "235 Sullivan St, New York, NY 10012",
    "phone": "+16467264418",
    "latitude": 40.729771,
    "longitude": -73.999392,
    "zipcode": "10012",
    "totalReviews": 2107
  },
  {
    "cuisine": "Thai",
    "id": "-OixbLnFLCzQclxCSbUQ8w",
    "name": "Up Thai",
    "rating": 4.4,
    "address": "1411 2nd Ave, New York, NY 10021",
    "phone": "+12122561188",
    "latitude": 40.7698275926665,
    "longitude": -73.9576330868512,
    "zipcode": "10021",
    "totalReviews": 3292
  },
  {
    "cuisine": "Thai",
    "id": "M-QVdyff9TPobqVYw4H_qw",
    "name": "Grata Thai Cuisine",
    "rating": 4.4,
    "address": "1099 1st Ave, New York, NY 10065",
    "phone": "+12128131188",
    "latitude": 40.760509,
    "longitude": -73.961668,
    "zipcode": "10065",
    "totalReviews": 34
  },
  {
    "cuisine": "Thai",
    "id": "WJS06XxRdc6DD1s4LWE9HA",
    "name": "Fish Cheeks",
    "rating": 4.4,
    "address": "55 Bond St, New York, NY 10012",
    "phone": "+12126772223",
    "latitude": 40.7258,
    "longitude": -73.9927,
    "zipcode": "10012",
    "totalReviews": 1767
  },
  {
    "cuisine": "Thai",
    "id": "MBOrVJAgdZ3Wm50e9arOeA",
    "name": "Bangkok Supper Club",
    "rating": 4.4,
    "address": "641 Hudson St, New York, NY 10014",
    "phone": "+16463441733",
    "latitude": 40.739027,
    "longitude": -74.00576,
    "zipcode": "10014",
    "totalReviews": 225
  },
  {
    "cuisine": "Thai",
    "id": "7xe5Pd4fvN2vo05FP2XOeg",
    "name": "LumLum ",
    "rating": 4.4,
    "address": "404 W 49th, New York, NY 10019",
    "phone": "+16466844618",
    "latitude": 40.7629,
    "longitude": -73.98991,
    "zipcode": "10019",
    "totalReviews": 604
  },
  {
    "cuisine": "Thai",
    "id": "liZmIO0FqZwslLJfLDkfgw",
    "name": "Wayla",
    "rating": 4.4,
    "address": "100 Forsyth St, Basement, New York, NY 10002",
    "phone": "+12122062500",
    "latitude": 40.7183,
    "longitude": -73.9926038,
    "zipcode": "10002",
    "totalReviews": 726
  },
  {
    "cuisine": "Thai",
    "id": "XlCaR9Q3fW37uhWuCx92mQ",
    "name": "When In Bangkok",
    "rating": 4.4,
    "address": "161-16 Northern Blvd, Flushing, NY 11358",
    "phone": "+19293622000",
    "latitude": 40.76215,
    "longitude": -73.80427,
    "zipcode": "11358",
    "totalReviews": 428
  },
  {
    "cuisine": "Thai",
    "id": "jjJc_CrkB2HodEinB6cWww",
    "name": "LoveMama",
    "rating": 4.4,
    "address": "174 2nd Ave, New York, NY 10003",
    "phone": "+12122545370",
    "latitude": 40.730387,
    "longitude": -73.986093,
    "zipcode": "10003",
    "totalReviews": 6949
  },
  {
    "cuisine": "Thai",
    "id": "UC3n_0vZ5zI1fvi7UzNZAg",
    "name": "Sabai Thai",
    "rating": 4.3,
    "address": "432 Park Ave S, New York, NY 10016",
    "phone": "+16464764521",
    "latitude": 40.74422,
    "longitude": -73.98365,
    "zipcode": "10016",
    "totalReviews": 572
  },
  {
    "cuisine": "Thai",
    "id": "AyhDtnqo7BFOQYwKMjIOEg",
    "name": "Sappe",
    "rating": 4.3,
    "address": "240 W 14th St, New York, NY 10011",
    "phone": "+12124666361",
    "latitude": 40.73913928385963,
    "longitude": -74.00180350332299,
    "zipcode": "10011",
    "totalReviews": 251
  },
  {
    "cuisine": "Thai",
    "id": "a-Bq_yXFVk2PptoWpmry3w",
    "name": "Pye Boat Noodle",
    "rating": 4.3,
    "address": "35-13 Broadway, Astoria, NY 11106",
    "phone": "+17186852329",
    "latitude": 40.760366832341425,
    "longitude": -73.92164019718223,
    "zipcode": "11106",
    "totalReviews": 1115
  },
  {
    "cuisine": "Thai",
    "id": "XEjkmHzGOepziSvP2uK4Xw",
    "name": "Hey Thai",
    "rating": 4.3,
    "address": "127 John St, New York, NY 10038",
    "phone": "+16464768084",
    "latitude": 40.70736912933025,
    "longitude": -74.00521581497618,
    "zipcode": "10038",
    "totalReviews": 240
  },
  {
    "cuisine": "Thai",
    "id": "z1OgXX3L9Ipl2mu-Hf4ADw",
    "name": "ViV",
    "rating": 4.3,
    "address": "717 9th Ave, New York, NY 10019",
    "phone": "+12125815999",
    "latitude": 40.76283,
    "longitude": -73.98983,
    "zipcode": "10019",
    "totalReviews": 1499
  },
  {
    "cuisine": "Thai",
    "id": "wyjtGsW5NeVDknGQWnIPAQ",
    "name": "wagamama - midtown",
    "rating": 4.2,
    "address": "100 W 55th St, New York, NY 10019",
    "phone": "+13329006111",
    "latitude": 40.76316041296893,
    "longitude": -73.97885444091449,
    "zipcode": "10019",
    "totalReviews": 482
  },
  {
    "cuisine": "Thai",
    "id": "xJuKTbInUnTsLINLLH8ehw",
    "name": "KRU",
    "rating": 4.2,
    "address": "190 N 14th St, Brooklyn, NY 11249",
    "phone": "",
    "latitude": 40.72281573696329,
    "longitude": -73.9557975,
    "zipcode": "11249",
    "totalReviews": 88
  },
  {
    "cuisine": "Thai",
    "id": "MhceeLrM2_3mcKw5EGLY6A",
    "name": "Pure Thai Cookhouse",
    "rating": 4.2,
    "address": "766 9th Ave, New York, NY 10019",
    "phone": "+12125810999",
    "latitude": 40.764291,
    "longitude": -73.988159,
    "zipcode": "10019",
    "totalReviews": 2906
  },
  {
    "cuisine": "Thai",
    "id": "XgiG7K7ubHsj2JJ-c2sXnw",
    "name": "Thai Diner",
    "rating": 4.2,
    "address": "186 Mott St, New York, NY 10012",
    "phone": "+16465594140",
    "latitude": 40.72071042964739,
    "longitude": -73.9956057,
    "zipcode": "10012",
    "totalReviews": 1062
  },
  {
    "cuisine": "Thai",
    "id": "qrydcGQpeDP_1oFvx3qOeg",
    "name": "Somtum Der",
    "rating": 4.1,
    "address": "85 Ave A, New York, NY 10009",
    "phone": "+12122608570",
    "latitude": 40.7252151982238,
    "longitude": -73.9842741682317,
    "zipcode": "10009",
    "totalReviews": 954
  },
  {
    "cuisine": "Chinese",
    "id": "oJ6fy4fBv_3WskxH4NfNBg",
    "name": "Chef Huang Jian Bing & Peking Duck",
    "rating": 4.6,
    "address": "635 2nd Ave, New York, NY 10016",
    "phone": "+16469186065",
    "latitude": 40.74531205210646,
    "longitude": -73.9757772,
    "zipcode": "10016",
    "totalReviews": 128
  },
  {
    "cuisine": "Chinese",
    "id": "sRWRA4dcN_NR1JGpuRVouA",
    "name": "Nan Xiang Soup Dumplings - Koreatown",
    "rating": 4.6,
    "address": "24 W 33rd St, New York, NY 10001",
    "phone": "+12129703888",
    "latitude": 40.7482487159912,
    "longitude": -73.98648243619347,
    "zipcode": "10001",
    "totalReviews": 1337
  },
  {
    "cuisine": "Chinese",
    "id": "h0pRCiJDrCN7tm3VX5tILQ",
    "name": "CHILI",
    "rating": 4.6,
    "address": "13 E 37th St, New York, NY 10016",
    "phone": "+16468820666",
    "latitude": 40.75002,
    "longitude": -73.98215,
    "zipcode": "10016",
    "totalReviews": 885
  },
  {
    "cuisine": "Chinese",
    "id": "LNx49p5HYVc01rKnkfKkFg",
    "name": "Super Taste",
    "rating": 4.6,
    "address": "1502 1st Ave, New York, NY 10075",
    "phone": "+12123350808",
    "latitude": 40.771858,
    "longitude": -73.952783,
    "zipcode": "10075",
    "totalReviews": 63
  },
  {
    "cuisine": "Chinese",
    "id": "pVlKM-vyOJxfoJ9fwMDDfA",
    "name": "Sky Pavilion",
    "rating": 4.6,
    "address": "325 W 42nd St, New York, NY 10036",
    "phone": "+16463719839",
    "latitude": 40.757968,
    "longitude": -73.990862,
    "zipcode": "10036",
    "totalReviews": 38
  },
  {
    "cuisine": "Chinese",
    "id": "8YWLuLUKj0t_0_Xv06UUtw",
    "name": "Ye's Apothecary \u591c\u83ba",
    "rating": 4.6,
    "address": "119 Orchard St, New York, NY 10002",
    "phone": "+19296552515",
    "latitude": 40.71945,
    "longitude": -73.9898,
    "zipcode": "10002",
    "totalReviews": 867
  },
  {
    "cuisine": "Chinese",
    "id": "1XgqwPF8JN-OVYDaKmO6SQ",
    "name": "Gulp",
    "rating": 4.6,
    "address": "42-45 27th St, Long Island City, NY 11101",
    "phone": "+19297898644",
    "latitude": 40.74898633252658,
    "longitude": -73.94065112701773,
    "zipcode": "11101",
    "totalReviews": 97
  },
  {
    "cuisine": "Chinese",
    "id": "83zDAk03lFXkgImgkLhT9w",
    "name": "Chi Restaurant & Bar",
    "rating": 4.5,
    "address": "492 9th Ave, New York, NY 10018",
    "phone": "+12129181470",
    "latitude": 40.75547,
    "longitude": -73.99439,
    "zipcode": "10018",
    "totalReviews": 413
  },
  {
    "cuisine": "Chinese",
    "id": "YDZX2bJ1IyV0lunBYqbb4w",
    "name": "New Chinatown  Asian Cuisine/ Bar",
    "rating": 4.5,
    "address": "1650 3rd Ave, New York, NY 10128",
    "phone": "+12125208124",
    "latitude": 40.782945,
    "longitude": -73.95132,
    "zipcode": "10128",
    "totalReviews": 137
  },
  {
    "cuisine": "Chinese",
    "id": "0vg2Z-HPwkyVVX613j2ysg",
    "name": "Peng's Noodle Folk",
    "rating": 4.5,
    "address": "1016 Lexington Ave, New York, NY 10021",
    "phone": "+19293913950",
    "latitude": 40.7711335538802,
    "longitude": -73.9620354269869,
    "zipcode": "10021",
    "totalReviews": 594
  },
  {
    "cuisine": "Chinese",
    "id": "nzqNfNXjtB6bxp-UN7xXkA",
    "name": "Bao Bao Cafe",
    "rating": 4.5,
    "address": "214 W 39th Street Retail 101, New York, NY 10018",
    "phone": "+19179652214",
    "latitude": 40.75432,
    "longitude": -73.989333,
    "zipcode": "10018",
    "totalReviews": 132
  },
  {
    "cuisine": "Chinese",
    "id": "FcQA5tV8wlz6jg_UK_s7Hw",
    "name": "Simply Noodles",
    "rating": 4.5,
    "address": "267  Amsterdam Ave, New York, NY 10023",
    "phone": "+12127211000",
    "latitude": 40.7788403,
    "longitude": -73.98118199999999,
    "zipcode": "10023",
    "totalReviews": 180
  },
  {
    "cuisine": "Chinese",
    "id": "p4xNh2NAy85Br77XaomFOw",
    "name": "OOHU",
    "rating": 4.5,
    "address": "128 W 36th St, New York, NY 10018",
    "phone": "+12125758899",
    "latitude": 40.751493955047785,
    "longitude": -73.9883517,
    "zipcode": "10018",
    "totalReviews": 89
  },
  {
    "cuisine": "Chinese",
    "id": "UK1oGbr8GU2rufpnJR4-HQ",
    "name": "Joe's Home of Soup Dumplings",
    "rating": 4.5,
    "address": "7 E 48th St, between Fifth and Madison avenues, New York, NY 10017",
    "phone": "+12123333868",
    "latitude": 40.75723,
    "longitude": -73.97702,
    "zipcode": "10017",
    "totalReviews": 739
  },
  {
    "cuisine": "Chinese",
    "id": "lynQoI3w_pzYfHGeuUU-Qg",
    "name": "Shu Jiao Fu Zhou",
    "rating": 4.5,
    "address": "295 Grand St, New York, NY 10002",
    "phone": "+12126252532",
    "latitude": 40.7174109,
    "longitude": -73.99208827387251,
    "zipcode": "10002",
    "totalReviews": 1557
  },
  {
    "cuisine": "Chinese",
    "id": "LTVNsNBh_0FI8MYrPfjRDQ",
    "name": "Jiang Nan",
    "rating": 4.4,
    "address": "103 Bowery, New York, NY 10002",
    "phone": "+12127758998",
    "latitude": 40.7175581,
    "longitude": -73.99498,
    "zipcode": "10002",
    "totalReviews": 225
  },
  {
    "cuisine": "Chinese",
    "id": "4FD0TAxe70nb3ngk3sXF9Q",
    "name": "Uluh",
    "rating": 4.4,
    "address": "152 2nd Ave, Ste A, New York, NY 10003",
    "phone": "+19172615963",
    "latitude": 40.729354,
    "longitude": -73.98665,
    "zipcode": "10003",
    "totalReviews": 1053
  },
  {
    "cuisine": "Chinese",
    "id": "KWx3SvW16hfSiFOAd4WzTA",
    "name": "1915 Lanzhou Hand Pulled Noodles",
    "rating": 4.4,
    "address": "207 E 26th St, New York, NY 10016",
    "phone": "+19178287384",
    "latitude": 40.74052419050578,
    "longitude": -73.98091535792065,
    "zipcode": "10016",
    "totalReviews": 74
  },
  {
    "cuisine": "Chinese",
    "id": "0dDCDQz7DrKkSvu9h2hcQw",
    "name": "Chow House \u5fb7\u60a6\u8f69",
    "rating": 4.4,
    "address": "181 Bleecker St, New York, NY 10012",
    "phone": "+12128371021",
    "latitude": 40.72908,
    "longitude": -74.00078,
    "zipcode": "10012",
    "totalReviews": 747
  },
  {
    "cuisine": "Chinese",
    "id": "A-ert0jDRBfku9ogyW_mEg",
    "name": "Spice Symphony - Midtown East",
    "rating": 4.4,
    "address": "150 E 50th St, New York, NY 10022",
    "phone": "+12123004869",
    "latitude": 40.7558937072754,
    "longitude": -73.9715347290039,
    "zipcode": "10022",
    "totalReviews": 725
  },
  {
    "cuisine": "Chinese",
    "id": "olRNNJCJ2TJvPRmjBiOcGA",
    "name": "Silky Kitchen",
    "rating": 4.4,
    "address": "137 E 13th St, New York, NY 10003",
    "phone": "+16468500635",
    "latitude": 40.733077,
    "longitude": -73.988303,
    "zipcode": "10003",
    "totalReviews": 315
  },
  {
    "cuisine": "Chinese",
    "id": "WVsPyl-DGRu0O_rQYdIMVQ",
    "name": "The Best Sichuan",
    "rating": 4.4,
    "address": "47 W 39th St, New York, NY 10018",
    "phone": "+12128890980",
    "latitude": 40.75277108646358,
    "longitude": -73.9845295,
    "zipcode": "10018",
    "totalReviews": 212
  },
  {
    "cuisine": "Chinese",
    "id": "6YehBdKHcLDsvaewhcEjFQ",
    "name": "Hey Yuet",
    "rating": 4.4,
    "address": "251 W 26th St, New York, NY 10001",
    "phone": "+16469984196",
    "latitude": 40.747241,
    "longitude": -73.996441,
    "zipcode": "10001",
    "totalReviews": 292
  },
  {
    "cuisine": "Chinese",
    "id": "XsXLVWr1UZWVhKThNvNiaA",
    "name": "Blue Willow \u591c\u6765\u6e58",
    "rating": 4.4,
    "address": "40 W 56th St, New York, NY 10019",
    "phone": "+12122132299",
    "latitude": 40.76292,
    "longitude": -73.976546,
    "zipcode": "10019",
    "totalReviews": 1349
  },
  {
    "cuisine": "Chinese",
    "id": "iXH9H75idkSB-Eudo5ABhg",
    "name": "Tang By Mr Sun",
    "rating": 4.4,
    "address": "1442 3rd Ave, New York, NY 10028",
    "phone": "+16465902910",
    "latitude": 40.77614,
    "longitude": -73.95616,
    "zipcode": "10028",
    "totalReviews": 100
  },
  {
    "cuisine": "Chinese",
    "id": "oe8GEFE4QLFAKt87y7zcgA",
    "name": "Very Fresh Noodles",
    "rating": 4.4,
    "address": "409 W 15th St, New York, NY 10011",
    "phone": "+13322156161",
    "latitude": 40.74207,
    "longitude": -74.00565,
    "zipcode": "10011",
    "totalReviews": 1664
  },
  {
    "cuisine": "Chinese",
    "id": "mUl0wtO7tPkBocuJqZ-7Dw",
    "name": "Dun Huang -  Grand Central",
    "rating": 4.4,
    "address": "320 Lexington Ave, New York, NY 10016",
    "phone": "+16469644007",
    "latitude": 40.74922,
    "longitude": -73.97785,
    "zipcode": "10016",
    "totalReviews": 371
  },
  {
    "cuisine": "Chinese",
    "id": "jc7lVTvmYMIK5RNpENtS6w",
    "name": "Szechuan Mountain House",
    "rating": 4.3,
    "address": "23 St Marks Pl, New York, NY 10003",
    "phone": "+19173883866",
    "latitude": 40.72911,
    "longitude": -73.98858,
    "zipcode": "10003",
    "totalReviews": 833
  },
  {
    "cuisine": "Chinese",
    "id": "pCfGgX0WxGASGM4-Yhr2Pw",
    "name": "Hao Noodle Chelsea",
    "rating": 4.3,
    "address": "343 W 14th St, New York, NY 10014",
    "phone": "+16468820059",
    "latitude": 40.7408,
    "longitude": -74.00429,
    "zipcode": "10014",
    "totalReviews": 693
  },
  {
    "cuisine": "Chinese",
    "id": "Ig5-xwGEXMFssmwIvzxCRQ",
    "name": "Silky Kitchen",
    "rating": 4.3,
    "address": "3002 39th Ave, Spc 1, Long Island City, NY 11101",
    "phone": "",
    "latitude": 40.75274078729301,
    "longitude": -73.93320107260092,
    "zipcode": "11101",
    "totalReviews": 38
  },
  {
    "cuisine": "Chinese",
    "id": "JxrTO6uUxYkrKvFKg3JmRw",
    "name": "Jiang Nan",
    "rating": 4.3,
    "address": "27-19 Thomson Ave, Long Island City, NY 11101",
    "phone": "+15187523091",
    "latitude": 40.74652648430905,
    "longitude": -73.94219679999999,
    "zipcode": "11101",
    "totalReviews": 66
  },
  {
    "cuisine": "Chinese",
    "id": "LT0yyLNM84EiJj9DL0rfHA",
    "name": "Hui Restaurant & Bar",
    "rating": 4.3,
    "address": "314 E 70th St, New York, NY 10021",
    "phone": "+16468690339",
    "latitude": 40.76701,
    "longitude": -73.95846,
    "zipcode": "10021",
    "totalReviews": 328
  },
  {
    "cuisine": "Chinese",
    "id": "_fTRTishY3G5dLPLYGCVAw",
    "name": "Tipsy Shanghai",
    "rating": 4.3,
    "address": "594 3rd Ave, New York, NY 10016",
    "phone": "+12124666488",
    "latitude": 40.74879,
    "longitude": -73.9761,
    "zipcode": "10016",
    "totalReviews": 111
  },
  {
    "cuisine": "Chinese",
    "id": "DIwe3i_-OkvfKAHrNDGtSw",
    "name": "Red Sorghum \u591c\u5bb4",
    "rating": 4.3,
    "address": "28-03 Jackson Ave, Queens, NY 11101",
    "phone": "+19295452023",
    "latitude": 40.74868211533397,
    "longitude": -73.93911207384153,
    "zipcode": "11101",
    "totalReviews": 188
  },
  {
    "cuisine": "Chinese",
    "id": "BPErPpKSNluwcjbKRgze3w",
    "name": "Xi'an Famous Foods",
    "rating": 4.2,
    "address": "328 E 78th St, New York, NY 10075",
    "phone": "+12127862068",
    "latitude": 40.77197,
    "longitude": -73.95452,
    "zipcode": "10075",
    "totalReviews": 713
  },
  {
    "cuisine": "Chinese",
    "id": "rGUv1nNmsvy2jOlZtbaOpw",
    "name": "Dimsum Garden",
    "rating": 4.2,
    "address": "338 Lexington Ave, New York, NY 10016",
    "phone": "+16465592388",
    "latitude": 40.74979,
    "longitude": -73.97743,
    "zipcode": "10016",
    "totalReviews": 149
  },
  {
    "cuisine": "Chinese",
    "id": "E_Rxnmim6J2ECFtU0QGlsQ",
    "name": "Uncle Lou \u5feb\u6a02\u4eba",
    "rating": 4.2,
    "address": "73 Mulberry St, New York, NY 10013",
    "phone": "+12129665538",
    "latitude": 40.716284,
    "longitude": -73.99939,
    "zipcode": "10013",
    "totalReviews": 559
  },
  {
    "cuisine": "Chinese",
    "id": "BNaveJmi-OUGKG9sRfrIhA",
    "name": "Mr. Sun",
    "rating": 4.2,
    "address": "48 W 48th St, New York, NY 10036",
    "phone": "+17183169811",
    "latitude": 40.75809,
    "longitude": -73.98026,
    "zipcode": "10036",
    "totalReviews": 349
  },
  {
    "cuisine": "Chinese",
    "id": "Irl5EDZ-wBbb6AsxCjrbQg",
    "name": "Grandma's Home",
    "rating": 4.2,
    "address": "56 W 22nd St, New York, NY 10010",
    "phone": "+16463296770",
    "latitude": 40.74185184042206,
    "longitude": -73.9928814,
    "zipcode": "10010",
    "totalReviews": 77
  },
  {
    "cuisine": "Chinese",
    "id": "Y5TqZhNxPC6BWnM7zsCSjA",
    "name": "Din Tai Fung",
    "rating": 4.2,
    "address": "1633 Broadway, New York, NY 10019",
    "phone": "+12122879178",
    "latitude": 40.76208666199797,
    "longitude": -73.98397440328853,
    "zipcode": "10019",
    "totalReviews": 1295
  },
  {
    "cuisine": "Chinese",
    "id": "sBCJYLPNJuagg-aJ3Y_ozQ",
    "name": "Cheli",
    "rating": 4.2,
    "address": "19 St Marks Pl, New York, NY 10003",
    "phone": "+16468581866",
    "latitude": 40.72919825690721,
    "longitude": -73.98871113812073,
    "zipcode": "10003",
    "totalReviews": 418
  },
  {
    "cuisine": "Chinese",
    "id": "lSuyHj3cCXbKjcZaakF9lQ",
    "name": "Dimsum Garden",
    "rating": 4.2,
    "address": "1068 2nd Ave, New York, NY 10022",
    "phone": "+16466827880",
    "latitude": 40.758701,
    "longitude": -73.965463,
    "zipcode": "10022",
    "totalReviews": 58
  },
  {
    "cuisine": "Chinese",
    "id": "bVkjBJlAIwKAj9Aw1KVWjA",
    "name": "Dim Sum Palace",
    "rating": 4.1,
    "address": "334 W 46th St, New York, NY 10036",
    "phone": "+16468611910",
    "latitude": 40.76015,
    "longitude": -73.9893699,
    "zipcode": "10036",
    "totalReviews": 1852
  },
  {
    "cuisine": "Chinese",
    "id": "QaolMEijS7L6eodSneOdng",
    "name": "Tri Dim Shanghai West",
    "rating": 4.1,
    "address": "467 Columbus Ave, New York, NY 10024",
    "phone": "+12125851398",
    "latitude": 40.784058,
    "longitude": -73.973567,
    "zipcode": "10024",
    "totalReviews": 268
  },
  {
    "cuisine": "Chinese",
    "id": "nI1UYDCYUTt23TpGxqnLKg",
    "name": "Buddakan",
    "rating": 4.1,
    "address": "75 9th Ave, New York, NY 10011",
    "phone": "+12129896699",
    "latitude": 40.7422762672197,
    "longitude": -74.0048000961542,
    "zipcode": "10011",
    "totalReviews": 4806
  },
  {
    "cuisine": "Chinese",
    "id": "HScFap2SwbUlfC-QXVkxFA",
    "name": "Xi'an Famous Foods",
    "rating": 4.0,
    "address": "60 W 45th St, New York, NY 10036",
    "phone": "+12127862068",
    "latitude": 40.75632658419739,
    "longitude": -73.98187471577259,
    "zipcode": "10036",
    "totalReviews": 1763
  },
  {
    "cuisine": "Chinese",
    "id": "-lgNzAEyFr8LCTuBTWnAMg",
    "name": "Dim Sum Palace",
    "rating": 4.0,
    "address": "28 W 56th St, New York, NY 10019",
    "phone": "+16466093966",
    "latitude": 40.762765496672955,
    "longitude": -73.97609185077448,
    "zipcode": "10019",
    "totalReviews": 509
  },
  {
    "cuisine": "Chinese",
    "id": "KsNZ14VEAenHBPxr8t9t8A",
    "name": "Beef Up Noodle",
    "rating": 5.0,
    "address": "350 3rd Ave, New York, NY 10010",
    "phone": "+16464906466",
    "latitude": 40.740687956725154,
    "longitude": -73.9821535,
    "zipcode": "10010",
    "totalReviews": 1
  },
  {
    "cuisine": "Chinese",
    "id": "kwqOmEwWJ0D9PyCdFGE3-g",
    "name": "Xi'an Famous Foods",
    "rating": 4.0,
    "address": "309 Amsterdam Ave, New York, NY 10023",
    "phone": "+12127862068",
    "latitude": 40.780145,
    "longitude": -73.980266,
    "zipcode": "10023",
    "totalReviews": 751
  },
  {
    "cuisine": "Chinese",
    "id": "s5JNxy0eAFgxS2Poi73ODw",
    "name": "Mala Project",
    "rating": 4.0,
    "address": "41 W 46th St, New York, NY 10036",
    "phone": "+19172617520",
    "latitude": 40.756899,
    "longitude": -73.980586,
    "zipcode": "10036",
    "totalReviews": 597
  },
  {
    "cuisine": "Mexican",
    "id": "ZzYDbyn1zLc2xyoeCXXMNw",
    "name": "Animo",
    "rating": 4.9,
    "address": "1004 2nd Ave, New York, NY 10022",
    "phone": "+12128371791",
    "latitude": 40.75679,
    "longitude": -73.96679,
    "zipcode": "10022",
    "totalReviews": 20
  },
  {
    "cuisine": "Mexican",
    "id": "HjvCwjM0EkFoYo8TFHjfww",
    "name": "Arre Sinaloa",
    "rating": 4.8,
    "address": "4605 Park Ave, Union City, NJ 07087",
    "phone": "+12017100900",
    "latitude": 40.77804222204433,
    "longitude": -74.0175949037075,
    "zipcode": "07087",
    "totalReviews": 82
  },
  {
    "cuisine": "Mexican",
    "id": "SeI-nIE1Ab5U53mB_e-1KQ",
    "name": "Soledad",
    "rating": 4.7,
    "address": "1825 2nd Ave, New York, NY 10128",
    "phone": "",
    "latitude": 40.78336,
    "longitude": -73.94796,
    "zipcode": "10128",
    "totalReviews": 45
  },
  {
    "cuisine": "Mexican",
    "id": "dtAGaV2JLVvljg-0LZTa_w",
    "name": "Cafe Xochimilco",
    "rating": 4.7,
    "address": "3801 29th St, Long Island City, NY 11101",
    "phone": "+17186852279",
    "latitude": 40.754352,
    "longitude": -73.93358,
    "zipcode": "11101",
    "totalReviews": 66
  },
  {
    "cuisine": "Mexican",
    "id": "SULHf6nGQ8sK0UpG1XU30w",
    "name": "Los Tacos No.1",
    "rating": 4.7,
    "address": "229 W 43rd St, New York, NY 10036",
    "phone": "+12125744696",
    "latitude": 40.7575067,
    "longitude": -73.9877717,
    "zipcode": "10036",
    "totalReviews": 3301
  },
  {
    "cuisine": "Mexican",
    "id": "3t1IjhshYUfDWIzpJn5YlQ",
    "name": "Cinco De Mayo",
    "rating": 4.6,
    "address": "153 E 43rd St, New York, NY 10017",
    "phone": "+12126822197",
    "latitude": 40.75172171488582,
    "longitude": -73.9742506021925,
    "zipcode": "10017",
    "totalReviews": 31
  },
  {
    "cuisine": "Mexican",
    "id": "eM5uNo9gsztpqAFBqwWWxA",
    "name": "Sentir",
    "rating": 4.6,
    "address": "37 West 19th St, New York, NY 10011",
    "phone": "+12128713171",
    "latitude": 40.740061713275594,
    "longitude": -73.99317959999999,
    "zipcode": "10011",
    "totalReviews": 70
  },
  {
    "cuisine": "Mexican",
    "id": "L3REPLCvQpMapYPd_fkS-A",
    "name": "Los Mariscos",
    "rating": 4.6,
    "address": "409 W 15th St, New York, NY 10011",
    "phone": "+12129204986",
    "latitude": 40.74207,
    "longitude": -74.00565,
    "zipcode": "10011",
    "totalReviews": 869
  },
  {
    "cuisine": "Mexican",
    "id": "8SdKtlwT9vcowN4veZ8Sjw",
    "name": "Bar Mexicana",
    "rating": 4.6,
    "address": "127A W 43rd St, New York, NY 10036",
    "phone": "+19179147037",
    "latitude": 40.7562,
    "longitude": -73.98496,
    "zipcode": "10036",
    "totalReviews": 22
  },
  {
    "cuisine": "Mexican",
    "id": "kBpYAEbDHlf-yFjmUBYhlw",
    "name": "Cinco de Mayo",
    "rating": 4.5,
    "address": "43 W 55th St, New York, NY 10019",
    "phone": "+12123333020",
    "latitude": 40.76256094905769,
    "longitude": -73.97674246674985,
    "zipcode": "10019",
    "totalReviews": 22
  },
  {
    "cuisine": "Mexican",
    "id": "6Ct7OeTRn4caY9g0swFBsw",
    "name": "La Contenta Les",
    "rating": 4.5,
    "address": "102 Norfolk St, New York, NY 10002",
    "phone": "+12124324180",
    "latitude": 40.71878,
    "longitude": -73.98706,
    "zipcode": "10002",
    "totalReviews": 953
  },
  {
    "cuisine": "Mexican",
    "id": "YFL1rAdlv7J0cswHVhvCtQ",
    "name": "Ruta Oaxaca Mexican Cuisine",
    "rating": 4.5,
    "address": "35-03 Broadway, Astoria, NY 11106",
    "phone": "+19293491228",
    "latitude": 40.76058,
    "longitude": -73.92182,
    "zipcode": "11106",
    "totalReviews": 329
  },
  {
    "cuisine": "Mexican",
    "id": "xrKa2SpgWzPEEbji3Iw2DQ",
    "name": "The Calaveras",
    "rating": 4.5,
    "address": "949 Columbus Ave, New York, NY 10025",
    "phone": "+16464846533",
    "latitude": 40.79958471538314,
    "longitude": -73.96236413283702,
    "zipcode": "10025",
    "totalReviews": 256
  },
  {
    "cuisine": "Mexican",
    "id": "AFMskIEWMA-9mawqSFEuqg",
    "name": "Buena Onda",
    "rating": 4.5,
    "address": "1446 1st Ave, New York, NY 10021",
    "phone": "+12129316200",
    "latitude": 40.76992107323629,
    "longitude": -73.95424961681297,
    "zipcode": "10021",
    "totalReviews": 20
  },
  {
    "cuisine": "Mexican",
    "id": "7ERwg_4Kiaq1ezKTSSv7pg",
    "name": "Taqueria 86",
    "rating": 4.5,
    "address": "210 W 94th St, New York, NY 10025",
    "phone": "+19176757727",
    "latitude": 40.793,
    "longitude": -73.97214,
    "zipcode": "10025",
    "totalReviews": 147
  },
  {
    "cuisine": "Mexican",
    "id": "PHMkwS5nmo4IUXbcg0OcAg",
    "name": "Jajaja Mexicana",
    "rating": 4.5,
    "address": "63 Carmine St, New York, NY 10014",
    "phone": "+19172620184",
    "latitude": 40.72979,
    "longitude": -74.00455,
    "zipcode": "10014",
    "totalReviews": 700
  },
  {
    "cuisine": "Mexican",
    "id": "MaoCNdHni6MLjM9iYQqHcg",
    "name": "Frida Midtown",
    "rating": 4.4,
    "address": "214 E 52nd St, New York, NY 10022",
    "phone": "+12126885200",
    "latitude": 40.75667,
    "longitude": -73.969168,
    "zipcode": "10022",
    "totalReviews": 225
  },
  {
    "cuisine": "Mexican",
    "id": "_2jMPuiK-7nLepFdPu2TTQ",
    "name": "345 Cantina",
    "rating": 4.4,
    "address": "345 E 6th St, New York, NY 10003",
    "phone": "+13478487734",
    "latitude": 40.72665,
    "longitude": -73.98651,
    "zipcode": "10003",
    "totalReviews": 48
  },
  {
    "cuisine": "Mexican",
    "id": "PqqnNrUtU7XTKQvUM4cyqQ",
    "name": "Bar Verde",
    "rating": 4.4,
    "address": "65 2nd Ave, New York, NY 10003",
    "phone": "+12127776965",
    "latitude": 40.7260849061034,
    "longitude": -73.9897361397743,
    "zipcode": "10003",
    "totalReviews": 481
  },
  {
    "cuisine": "Mexican",
    "id": "Zk8UgB9MDoIHWFYgAxNlIQ",
    "name": "De Mole",
    "rating": 4.3,
    "address": "2 Hope St, Brooklyn, NY 11211",
    "phone": "+13477213399",
    "latitude": 40.71377,
    "longitude": -73.95786,
    "zipcode": "11211",
    "totalReviews": 319
  },
  {
    "cuisine": "Mexican",
    "id": "of8nJEagUSBCOO5S-sEAcQ",
    "name": "El Lugar Cantina",
    "rating": 4.3,
    "address": "30 W 30th St, New York, NY 10001",
    "phone": "+16463491550",
    "latitude": 40.746461,
    "longitude": -73.987928,
    "zipcode": "10001",
    "totalReviews": 30
  },
  {
    "cuisine": "Mexican",
    "id": "5RqQOSTz5WBxZYH1iIzv4A",
    "name": "Los Tacos Hermanos",
    "rating": 4.3,
    "address": "570 8th Ave, New York, NY 10018",
    "phone": "+12123984646",
    "latitude": 40.75476,
    "longitude": -73.99137,
    "zipcode": "10018",
    "totalReviews": 24
  },
  {
    "cuisine": "Mexican",
    "id": "7Yh4Zp-l3is-4V9MrDoAIw",
    "name": "Lolita",
    "rating": 4.3,
    "address": "45 W 45th St, New York, NY 10036",
    "phone": "+12123890050",
    "latitude": 40.756371412646445,
    "longitude": -73.9811027,
    "zipcode": "10036",
    "totalReviews": 87
  },
  {
    "cuisine": "Mexican",
    "id": "U6l20gH8YuOJMO8vF6_Ufw",
    "name": "Jajaja Mexicana",
    "rating": 4.3,
    "address": "450 W 33rd St, Whole Foods, New York, NY 10001",
    "phone": "+19177228419",
    "latitude": 40.752826939147255,
    "longitude": -73.99968461876813,
    "zipcode": "10001",
    "totalReviews": 92
  },
  {
    "cuisine": "Mexican",
    "id": "UjBZR0Vyl5zpwDVkOvNceQ",
    "name": "Casa Carmen",
    "rating": 4.3,
    "address": "5 W 21st St, New York, NY 10010",
    "phone": "+19175405600",
    "latitude": 40.74071727271747,
    "longitude": -73.99106050000002,
    "zipcode": "10010",
    "totalReviews": 30
  },
  {
    "cuisine": "Mexican",
    "id": "tvqtAjAyc7dplVVwhw3VZQ",
    "name": "La Contenta Oeste",
    "rating": 4.3,
    "address": "78 W 11th St, New York, NY 10011",
    "phone": "+12125332233",
    "latitude": 40.7352,
    "longitude": -73.99808,
    "zipcode": "10011",
    "totalReviews": 354
  },
  {
    "cuisine": "Mexican",
    "id": "MuOI7pknWVLNfed5MXUvJg",
    "name": "DORADO Tacos & Quesadillas",
    "rating": 4.5,
    "address": "152 West 52nd St, New York, NY 10019",
    "phone": "",
    "latitude": 40.762577,
    "longitude": -73.981442,
    "zipcode": "10019",
    "totalReviews": 4
  },
  {
    "cuisine": "Mexican",
    "id": "Xjswj531-FkRZPpcccU6kQ",
    "name": "Vida Verde",
    "rating": 4.2,
    "address": "248 W 55th St, New York, NY 10019",
    "phone": "+16466570565",
    "latitude": 40.7649503286729,
    "longitude": -73.9828372257363,
    "zipcode": "10019",
    "totalReviews": 1738
  },
  {
    "cuisine": "Mexican",
    "id": "vyKBwzRdNX4yiJDIFv37iw",
    "name": "Oxomoco",
    "rating": 4.2,
    "address": "128 Greenpoint Ave, Brooklyn, NY 11222",
    "phone": "+16466884180",
    "latitude": 40.7299099,
    "longitude": -73.95548,
    "zipcode": "11222",
    "totalReviews": 721
  },
  {
    "cuisine": "Mexican",
    "id": "WZynqsGjqQLc_T8R80_-7g",
    "name": "Yellow Rose",
    "rating": 4.2,
    "address": "102 3rd Ave, New York, NY 10003",
    "phone": "+12125298880",
    "latitude": 40.732575,
    "longitude": -73.98806909999999,
    "zipcode": "10003",
    "totalReviews": 203
  },
  {
    "cuisine": "Mexican",
    "id": "BsDu_kup3lJ2QHb-Botpeg",
    "name": "Covacha",
    "rating": 4.2,
    "address": "368 Columbus Ave, New York, NY 10023",
    "phone": "+12127122929",
    "latitude": 40.78110489839311,
    "longitude": -73.97644500326436,
    "zipcode": "10023",
    "totalReviews": 246
  },
  {
    "cuisine": "Mexican",
    "id": "ku2kV9V5tsu-bDx8mY825w",
    "name": "La Cocina Fantasma",
    "rating": 4.7,
    "address": "231 E 53rd St, New York, NY 10022",
    "phone": "+16464540127",
    "latitude": 40.75725,
    "longitude": -73.96808,
    "zipcode": "10022",
    "totalReviews": 3
  },
  {
    "cuisine": "Mexican",
    "id": "xemN4tP9RlK5c-yUT-M71Q",
    "name": "Mamasita Bar & Grill",
    "rating": 4.2,
    "address": "818 10th Ave, New York, NY 10019",
    "phone": "+12123159444",
    "latitude": 40.767339,
    "longitude": -73.989487,
    "zipcode": "10019",
    "totalReviews": 1778
  },
  {
    "cuisine": "Mexican",
    "id": "ueL0t_7Yu_ev2RrWK9dgDA",
    "name": "Tacombi",
    "rating": 4.2,
    "address": "23 W 33rd St, New York, NY 10001",
    "phone": "+12129675555",
    "latitude": 40.74844037111226,
    "longitude": -73.98618609111018,
    "zipcode": "10001",
    "totalReviews": 380
  },
  {
    "cuisine": "Mexican",
    "id": "PAJdNrD4HFBN16OAFeDx4A",
    "name": "Ponche Taqueria & Cantina",
    "rating": 4.1,
    "address": "420 W 49th St, New York, NY 10019",
    "phone": "+12125811235",
    "latitude": 40.763127,
    "longitude": -73.990495,
    "zipcode": "10019",
    "totalReviews": 582
  },
  {
    "cuisine": "Mexican",
    "id": "a2BkT6uUKDpzhLalkksJsg",
    "name": "Tacombi",
    "rating": 4.1,
    "address": "202 E 70th St, New York, NY 10021",
    "phone": "+16467264302",
    "latitude": 40.768036983514506,
    "longitude": -73.96119122060036,
    "zipcode": "10021",
    "totalReviews": 208
  },
  {
    "cuisine": "Mexican",
    "id": "qnXMxa7WokNT_0fYCGT38w",
    "name": "Five Star Mexican Taco Grill",
    "rating": 4.1,
    "address": "451 Lexington Ave, New York, NY 10017",
    "phone": "+19174095851",
    "latitude": 40.7531734,
    "longitude": -73.9744752,
    "zipcode": "10017",
    "totalReviews": 18
  },
  {
    "cuisine": "Mexican",
    "id": "5WBwvVVZJc90E6O28NAjkQ",
    "name": "Superbueno",
    "rating": 4.0,
    "address": "13 1st Ave, East Village, NY 10003",
    "phone": "+13478667739",
    "latitude": 40.72345312351195,
    "longitude": -73.9885737,
    "zipcode": "10003",
    "totalReviews": 87
  },
  {
    "cuisine": "Mexican",
    "id": "IfIyjm4SfORGYPbaAWST3g",
    "name": "MEXiCUE",
    "rating": 4.0,
    "address": "225 5th Ave, New York, NY 10010",
    "phone": "+13322633200",
    "latitude": 40.743617,
    "longitude": -73.987867,
    "zipcode": "10010",
    "totalReviews": 748
  },
  {
    "cuisine": "Mexican",
    "id": "bLnJqhQ8gWawYOujyDRC1A",
    "name": "Barrio Cafe",
    "rating": 5.0,
    "address": "2030 Broadway, New York, NY 10023",
    "phone": "+18558185755",
    "latitude": 40.77671,
    "longitude": -73.98184,
    "zipcode": "10023",
    "totalReviews": 1
  },
  {
    "cuisine": "Mexican",
    "id": "Wx6lMnEh7dCmX-9PQF1Ifw",
    "name": "Toloache 50",
    "rating": 4.0,
    "address": "251 West 50th St, New York, NY 10012",
    "phone": "+12125811818",
    "latitude": 40.762227,
    "longitude": -73.9856178382696,
    "zipcode": "10012",
    "totalReviews": 2343
  },
  {
    "cuisine": "Mexican",
    "id": "nrwOQSXoRXfAYhkdjiUk8g",
    "name": "Toro Loco",
    "rating": 4.0,
    "address": "15 Stone St, New York, NY 10004",
    "phone": "+19172620444",
    "latitude": 40.70421,
    "longitude": -74.01208,
    "zipcode": "10004",
    "totalReviews": 509
  },
  {
    "cuisine": "Mexican",
    "id": "9aJ1MVTthZw3QjqoG7mPjg",
    "name": "Rosie's",
    "rating": 4.0,
    "address": "29 E 2nd St, New York, NY 10003",
    "phone": "+12123350114",
    "latitude": 40.72493398880827,
    "longitude": -73.99062355504286,
    "zipcode": "10003",
    "totalReviews": 935
  },
  {
    "cuisine": "Mexican",
    "id": "BbMUXd69i0tlWS2aoppwaQ",
    "name": "El Camion",
    "rating": 3.9,
    "address": "194 Ave A, New York, NY 10009",
    "phone": "+12125335436",
    "latitude": 40.7291717528508,
    "longitude": -73.98111043269348,
    "zipcode": "10009",
    "totalReviews": 792
  },
  {
    "cuisine": "Mexican",
    "id": "xGoSAOhQBNdJMJmPn7CMDQ",
    "name": "Mexicue - Midtown",
    "rating": 3.9,
    "address": "1440 Broadway, New York, NY 10018",
    "phone": "+13322498600",
    "latitude": 40.754109,
    "longitude": -73.986015,
    "zipcode": "10018",
    "totalReviews": 718
  },
  {
    "cuisine": "Mexican",
    "id": "0ksKKrgHt-6xCCHfTlLcoA",
    "name": "t\u00e1n",
    "rating": 3.9,
    "address": "209 E 49th St, New York, NY 10017",
    "phone": "+19173882248",
    "latitude": 40.75502324994503,
    "longitude": -73.97048579999999,
    "zipcode": "10017",
    "totalReviews": 196
  },
  {
    "cuisine": "Mexican",
    "id": "ED91L2kUw_pwF_Pd1ZdViQ",
    "name": "Rancho Tequileria",
    "rating": 3.9,
    "address": "718 Amsterdam Ave, New York, NY 10025",
    "phone": "+12122474505",
    "latitude": 40.793432,
    "longitude": -73.971356,
    "zipcode": "10025",
    "totalReviews": 126
  },
  {
    "cuisine": "Mexican",
    "id": "KDpFAWkLofuabBSpnNJY5A",
    "name": "Amor Loco",
    "rating": 3.9,
    "address": "134 W 46th St, New York, NY 10036",
    "phone": "+19172615650",
    "latitude": 40.75797140479767,
    "longitude": -73.98387478465575,
    "zipcode": "10036",
    "totalReviews": 152
  },
  {
    "cuisine": "Mexican",
    "id": "9_CEU7Wmvmwlyvqr-PJD6w",
    "name": "Ofrenda",
    "rating": 3.9,
    "address": "113 7th Ave S, New York, NY 10014",
    "phone": "+12129242305",
    "latitude": 40.73391,
    "longitude": -74.00242,
    "zipcode": "10014",
    "totalReviews": 1148
  },
  {
    "cuisine": "Mexican",
    "id": "cy0vBvZu2Eb4XtRFCp8Seg",
    "name": "Conmigo",
    "rating": 3.9,
    "address": "1685 1st Ave, New York, NY 10128",
    "phone": "+12122560056",
    "latitude": 40.77793,
    "longitude": -73.94902,
    "zipcode": "10128",
    "totalReviews": 385
  },
  {
    "cuisine": "Kosher",
    "id": "F2SwOvsP1_1JyDcCtnJzlQ",
    "name": "Tamam",
    "rating": 4.7,
    "address": "1108 Lexington Ave, New York, NY 10075",
    "phone": "+12126391818",
    "latitude": 40.7739676833531,
    "longitude": -73.9597929340972,
    "zipcode": "10075",
    "totalReviews": 249
  },
  {
    "cuisine": "Kosher",
    "id": "JwCnSW-RQ7_DxvbzWNO1hA",
    "name": "Coletta",
    "rating": 4.6,
    "address": "365 3rd Ave, New York, NY 10016",
    "phone": "+16468612889",
    "latitude": 40.74094,
    "longitude": -73.98139,
    "zipcode": "10016",
    "totalReviews": 314
  },
  {
    "cuisine": "Kosher",
    "id": "MK2ceJ1VNpbIVJOv04BAqw",
    "name": "Masuda Omakase",
    "rating": 4.6,
    "address": "1385 Broadway, New York, NY 10018",
    "phone": "+12123819909",
    "latitude": 40.75273964664135,
    "longitude": -73.98757789999999,
    "zipcode": "10018",
    "totalReviews": 9
  },
  {
    "cuisine": "Kosher",
    "id": "B2R7gy6mvvNjrm7UzzX-Gw",
    "name": "Bstro 38",
    "rating": 4.5,
    "address": "58 W 38th St, New York, NY 10018",
    "phone": "+12129440990",
    "latitude": 40.75179917869087,
    "longitude": -73.98524700317894,
    "zipcode": "10018",
    "totalReviews": 64
  },
  {
    "cuisine": "Kosher",
    "id": "OyVJMY9U75HGP5RK24Y54A",
    "name": "Fins and Scales",
    "rating": 4.8,
    "address": "10 E 8th St, New York, NY 10003",
    "phone": "",
    "latitude": 40.731769,
    "longitude": -73.995722,
    "zipcode": "10003",
    "totalReviews": 4
  },
  {
    "cuisine": "Kosher",
    "id": "TcuWyuZAORVnQBPCMNbTgw",
    "name": "Beyond Sushi",
    "rating": 4.5,
    "address": "62 W 56th St, New York, NY 10019",
    "phone": "+16469645097",
    "latitude": 40.76331,
    "longitude": -73.97717,
    "zipcode": "10019",
    "totalReviews": 898
  },
  {
    "cuisine": "Kosher",
    "id": "vwPTqxzu6mzBxDP_f9nosQ",
    "name": "Ayy Chihuahua",
    "rating": 4.5,
    "address": "36-16 Ditmars Blvd, Queens, NY 11105",
    "phone": "+13476491023",
    "latitude": 40.77383,
    "longitude": -73.90789,
    "zipcode": "11105",
    "totalReviews": 63
  },
  {
    "cuisine": "Kosher",
    "id": "b76loZR_fBNCcy99Ezh1bw",
    "name": "Patis",
    "rating": 4.4,
    "address": "2178 Broadway, New York, NY 10024",
    "phone": "+19176504061",
    "latitude": 40.782171270882,
    "longitude": -73.980416231626,
    "zipcode": "10024",
    "totalReviews": 25
  },
  {
    "cuisine": "Kosher",
    "id": "d8zSYpArh4oXpxeJWNA4Pg",
    "name": "Nish Nush",
    "rating": 4.4,
    "address": "88 Reade St, New York, NY 10013",
    "phone": "+12129641318",
    "latitude": 40.715688,
    "longitude": -74.007695,
    "zipcode": "10013",
    "totalReviews": 844
  },
  {
    "cuisine": "Kosher",
    "id": "ikkIneKupd7sClxu9nvdzQ",
    "name": "Shiraz Kitchen & Wine Bar",
    "rating": 4.4,
    "address": "111 W 17th St, New York, NY 10011",
    "phone": "+12125170840",
    "latitude": 40.73975906936846,
    "longitude": -73.9959804,
    "zipcode": "10011",
    "totalReviews": 235
  },
  {
    "cuisine": "Kosher",
    "id": "veq1Bl1DW3UWMekZJUsG1Q",
    "name": "Gramercy Tavern",
    "rating": 4.4,
    "address": "42 E 20th St, New York, NY 10003",
    "phone": "+12124770777",
    "latitude": 40.73844,
    "longitude": -73.98825,
    "zipcode": "10003",
    "totalReviews": 3647
  },
  {
    "cuisine": "Kosher",
    "id": "mLwZzB7dJqgYms4G3YLpCg",
    "name": "Akimori",
    "rating": 4.4,
    "address": "858 Lexington Ave, New York, NY 10065",
    "phone": "+16468337848",
    "latitude": 40.765793,
    "longitude": -73.965795,
    "zipcode": "10065",
    "totalReviews": 5
  },
  {
    "cuisine": "Kosher",
    "id": "cegA4jf16vEt7NCQ7cpu2w",
    "name": "Kin'd",
    "rating": 4.4,
    "address": "192-03 Union Tpke, Fresh Meadows, NY 11366",
    "phone": "+17184680888",
    "latitude": 40.73025559436381,
    "longitude": -73.7784138,
    "zipcode": "11366",
    "totalReviews": 1359
  },
  {
    "cuisine": "Kosher",
    "id": "qhXIW0LDT4XsoN2IE6dZHg",
    "name": "Ahimsa",
    "rating": 4.4,
    "address": "204 E 38th St, New York, NY 10016",
    "phone": "+12122282022",
    "latitude": 40.7478959,
    "longitude": -73.9758638,
    "zipcode": "10016",
    "totalReviews": 256
  },
  {
    "cuisine": "Kosher",
    "id": "j0n_poMVZnODYOFviLbh0Q",
    "name": "ta\u00efm mediterranean kitchen",
    "rating": 4.4,
    "address": "222 Waverly Pl, New York, NY 10014",
    "phone": "+12126911287",
    "latitude": 40.736002376347,
    "longitude": -74.0019588366439,
    "zipcode": "10014",
    "totalReviews": 1612
  },
  {
    "cuisine": "Kosher",
    "id": "m-G7KgMjYvrZNs5Jibfx4Q",
    "name": "Laser Wolf",
    "rating": 4.4,
    "address": "97 Wythe Ave, Brooklyn, NY 11249",
    "phone": "+17182157150",
    "latitude": 40.720977121632686,
    "longitude": -73.9585938,
    "zipcode": "11249",
    "totalReviews": 405
  },
  {
    "cuisine": "Kosher",
    "id": "qLLxS7RwNEjP_jq_KQrPfA",
    "name": "Traif",
    "rating": 4.4,
    "address": "229 S 4th St, Brooklyn, NY 11211",
    "phone": "+13478449578",
    "latitude": 40.710658,
    "longitude": -73.958872,
    "zipcode": "11211",
    "totalReviews": 2104
  },
  {
    "cuisine": "Kosher",
    "id": "AXTW2lhEjnxoPtZ_W1JY8A",
    "name": "Shawarma Shabazi",
    "rating": 4.3,
    "address": "668B Amsterdam Ave, New York, NY 10025",
    "phone": "+12125803770",
    "latitude": 40.792021762046,
    "longitude": -73.97208753973246,
    "zipcode": "10025",
    "totalReviews": 49
  },
  {
    "cuisine": "Kosher",
    "id": "CUmNfw86xZIFvOmjPm-9jw",
    "name": "Russ & Daughters",
    "rating": 4.3,
    "address": "502 W 34th St, New York, NY 10001",
    "phone": "+12124754880",
    "latitude": 40.7544987,
    "longitude": -73.9995268,
    "zipcode": "10001",
    "totalReviews": 174
  },
  {
    "cuisine": "Kosher",
    "id": "Khku97458lDm26qtQZ4s-A",
    "name": "Effy's Cafe",
    "rating": 4.3,
    "address": "1688 York Ave, New York, NY 10128",
    "phone": "+16464906751",
    "latitude": 40.7776,
    "longitude": -73.94569,
    "zipcode": "10128",
    "totalReviews": 83
  },
  {
    "cuisine": "Kosher",
    "id": "7flJeg5Tnc06cQQ7jnBtxg",
    "name": "Barnea Bistro",
    "rating": 4.3,
    "address": "211 E 46th St, New York, NY 10017",
    "phone": "+12124611001",
    "latitude": 40.75314,
    "longitude": -73.97179,
    "zipcode": "10017",
    "totalReviews": 82
  },
  {
    "cuisine": "Kosher",
    "id": "koh-4_SAbshwZ8EBRmXcmg",
    "name": "B&H Dairy",
    "rating": 4.3,
    "address": "127 2nd Ave, New York, NY 10003",
    "phone": "+12125058065",
    "latitude": 40.7284622192383,
    "longitude": -73.988166809082,
    "zipcode": "10003",
    "totalReviews": 582
  },
  {
    "cuisine": "Kosher",
    "id": "1XK53gaHMFQIA4VW3B6k1Q",
    "name": "Abaita",
    "rating": 4.3,
    "address": "145 E 49th St, New York, NY 10017",
    "phone": "+16468085518",
    "latitude": 40.755541483222,
    "longitude": -73.9718742367706,
    "zipcode": "10017",
    "totalReviews": 149
  },
  {
    "cuisine": "Kosher",
    "id": "owYYuyLvlsdjLz68c3SSfg",
    "name": "Taboonette",
    "rating": 4.3,
    "address": "30 E 13th St, New York, NY 10003",
    "phone": "+12125107881",
    "latitude": 40.7346038818359,
    "longitude": -73.9928283691406,
    "zipcode": "10003",
    "totalReviews": 1090
  },
  {
    "cuisine": "Kosher",
    "id": "4kzN5nhvOyHyJaeviWTpHQ",
    "name": "Mike's Bistro",
    "rating": 4.3,
    "address": "127 E 54th St, New York, NY 10022",
    "phone": "+12127993911",
    "latitude": 40.759407,
    "longitude": -73.971051,
    "zipcode": "10022",
    "totalReviews": 128
  },
  {
    "cuisine": "Kosher",
    "id": "6dU4KSLHuerYsfnEJBSV9A",
    "name": "Bonito 47",
    "rating": 4.3,
    "address": "114 W 47th St, New York, NY 10036",
    "phone": "+12122098822",
    "latitude": 40.75834662262812,
    "longitude": -73.9827867404112,
    "zipcode": "10036",
    "totalReviews": 8
  },
  {
    "cuisine": "Kosher",
    "id": "Qx01ny6b5PIBJlvI5mhjCA",
    "name": "19 Cleveland",
    "rating": 4.2,
    "address": "19 Cleveland Pl, New York, NY 10012",
    "phone": "+16468239227",
    "latitude": 40.72164,
    "longitude": -73.99722,
    "zipcode": "10012",
    "totalReviews": 392
  },
  {
    "cuisine": "Kosher",
    "id": "7CM15wd5d8WC_pHR674YXA",
    "name": "Hummus Kitchen",
    "rating": 4.2,
    "address": "1613 2nd Ave, New York, NY 10028",
    "phone": "+12129880090",
    "latitude": 40.77641,
    "longitude": -73.95304,
    "zipcode": "10028",
    "totalReviews": 1271
  },
  {
    "cuisine": "Kosher",
    "id": "G9b640a2fZs7s6Q-cWPkiQ",
    "name": "Tin Building by Jean-Georges",
    "rating": 4.2,
    "address": "96 S St, New York, NY 10038",
    "phone": "+16468686000",
    "latitude": 40.706200062546294,
    "longitude": -74.00226642004867,
    "zipcode": "10038",
    "totalReviews": 206
  },
  {
    "cuisine": "Kosher",
    "id": "TAANt0fPbfHqVP5LyMBioA",
    "name": "Kashkaval Garden",
    "rating": 4.2,
    "address": "852 9th Ave, New York, NY 10019",
    "phone": "+12122451758",
    "latitude": 40.76680229936593,
    "longitude": -73.986219866559,
    "zipcode": "10019",
    "totalReviews": 734
  },
  {
    "cuisine": "Kosher",
    "id": "pQuZDnefX038xurT1BhDXA",
    "name": "Keens Steakhouse",
    "rating": 4.2,
    "address": "72 W 36th St, New York, NY 10018",
    "phone": "+12129473636",
    "latitude": 40.7506687,
    "longitude": -73.98645756533554,
    "zipcode": "10018",
    "totalReviews": 3435
  },
  {
    "cuisine": "Kosher",
    "id": "YDHUVTkQ5ioHaPOMVwQjWQ",
    "name": "Dagon",
    "rating": 4.2,
    "address": "2454 Broadway, New York, NY 10024",
    "phone": "+12128732466",
    "latitude": 40.7912711,
    "longitude": -73.9738886,
    "zipcode": "10024",
    "totalReviews": 290
  },
  {
    "cuisine": "Kosher",
    "id": "GaxVczLK1qUuJHOP9VcFsQ",
    "name": "Ananda",
    "rating": 4.1,
    "address": "210 Thompson St, New York, NY 10012",
    "phone": "+12125337290",
    "latitude": 40.728724,
    "longitude": -73.999147,
    "zipcode": "10012",
    "totalReviews": 427
  },
  {
    "cuisine": "Kosher",
    "id": "EuWNk5SJB7wADVHoCtxAqg",
    "name": "Miriam",
    "rating": 4.1,
    "address": "300 Amsterdam Ave, New York, NY 10023",
    "phone": "+16465902659",
    "latitude": 40.780201643038154,
    "longitude": -73.98087029999999,
    "zipcode": "10023",
    "totalReviews": 272
  },
  {
    "cuisine": "Kosher",
    "id": "Ti-957LNURM0Gy2CXIbQOw",
    "name": "Hummus Kitchen",
    "rating": 4.1,
    "address": "768 9th Ave, New York, NY 10019",
    "phone": "+12123333009",
    "latitude": 40.76427,
    "longitude": -73.98797,
    "zipcode": "10019",
    "totalReviews": 1128
  },
  {
    "cuisine": "Kosher",
    "id": "J5XNBZyUwgNQjllwJZG3Lg",
    "name": "Side Door",
    "rating": 4.1,
    "address": "151 E 57th St, New York, NY 10022",
    "phone": "+16464227660",
    "latitude": 40.760863,
    "longitude": -73.968251,
    "zipcode": "10022",
    "totalReviews": 82
  },
  {
    "cuisine": "Kosher",
    "id": "8tcFpd0dcmfzbLgbTO4tdw",
    "name": "Sen Sakana",
    "rating": 4.1,
    "address": "28 W 44th St, New York, NY 10036",
    "phone": "+12122219560",
    "latitude": 40.75522571524429,
    "longitude": -73.98163,
    "zipcode": "10036",
    "totalReviews": 355
  },
  {
    "cuisine": "Kosher",
    "id": "Mvvv9yz7zc2ZDYcpKgvr0g",
    "name": "Liebman's Kosher Delicatessen",
    "rating": 4.1,
    "address": "552 W 235th St, Bronx, NY 10463",
    "phone": "+17185484534",
    "latitude": 40.88547330824943,
    "longitude": -73.90963735044168,
    "zipcode": "10463",
    "totalReviews": 411
  },
  {
    "cuisine": "Kosher",
    "id": "lXGCo-K7eftxRT_6E59-Iw",
    "name": "Union Square Cafe",
    "rating": 4.1,
    "address": "101 E 19th St, New York, NY 10003",
    "phone": "+12122434020",
    "latitude": 40.73759,
    "longitude": -73.98755,
    "zipcode": "10003",
    "totalReviews": 1504
  },
  {
    "cuisine": "Kosher",
    "id": "8nXo6lNJlXQQIdy8Kf7J9Q",
    "name": "Tessa",
    "rating": 4.1,
    "address": "349 Amsterdam Ave, New York, NY 10024",
    "phone": "+12123901974",
    "latitude": 40.7814059,
    "longitude": -73.97918,
    "zipcode": "10024",
    "totalReviews": 548
  },
  {
    "cuisine": "Kosher",
    "id": "vjubSxmdG_HoBBgd39geBw",
    "name": "Nino's 46",
    "rating": 4.0,
    "address": "39 W 46th St, New York, NY 10036",
    "phone": "+12127194015",
    "latitude": 40.756899,
    "longitude": -73.980507,
    "zipcode": "10036",
    "totalReviews": 1542
  },
  {
    "cuisine": "Kosher",
    "id": "kTQ0rRfgtlPwX9_O8OY_UA",
    "name": "Miznon",
    "rating": 4.0,
    "address": "435 W 15th St, New York, NY 10011",
    "phone": "+16464905871",
    "latitude": 40.74241,
    "longitude": -74.00633,
    "zipcode": "10011",
    "totalReviews": 590
  },
  {
    "cuisine": "Kosher",
    "id": "eq_jhDw9D38RAhyv09axTg",
    "name": "Effy's Cafe",
    "rating": 4.0,
    "address": "104 W 96th St, New York, NY 10025",
    "phone": "+12122806200",
    "latitude": 40.792959,
    "longitude": -73.968184,
    "zipcode": "10025",
    "totalReviews": 350
  },
  {
    "cuisine": "Kosher",
    "id": "ExvoimQ4LzY3UWtZ6m6Lgw",
    "name": "Ravagh Persian Grill",
    "rating": 4.0,
    "address": "173 Madison Ave, New York, NY 10016",
    "phone": "+12126960300",
    "latitude": 40.74726700950392,
    "longitude": -73.98311794328527,
    "zipcode": "10016",
    "totalReviews": 1114
  },
  {
    "cuisine": "Kosher",
    "id": "ERPn_Yqiu_KZ_3yKxMyXRg",
    "name": "Ama La Vita",
    "rating": 5.0,
    "address": "121 W 19th St, New York, NY 10011",
    "phone": "+19175317991",
    "latitude": 40.741126,
    "longitude": -73.995617,
    "zipcode": "10011",
    "totalReviews": 1
  },
  {
    "cuisine": "Kosher",
    "id": "Wx6lMnEh7dCmX-9PQF1Ifw",
    "name": "Toloache 50",
    "rating": 4.0,
    "address": "251 West 50th St, New York, NY 10012",
    "phone": "+12125811818",
    "latitude": 40.762227,
    "longitude": -73.9856178382696,
    "zipcode": "10012",
    "totalReviews": 2343
  },
  {
    "cuisine": "Kosher",
    "id": "3TvUIM385Y_CcOKEAIpTIQ",
    "name": "Miznon Kosher",
    "rating": 4.0,
    "address": "1410 Broadway, New York, NY 10018",
    "phone": "+19294481845",
    "latitude": 40.75332,
    "longitude": -73.98698,
    "zipcode": "10018",
    "totalReviews": 22
  },
  {
    "cuisine": "Kosher",
    "id": "9nz8T-qQ2vZ6ccGyI7Nkmg",
    "name": "Tabernacle Steakhouse",
    "rating": 3.9,
    "address": "315 W 36th St, New York, NY 10018",
    "phone": "+12129337001",
    "latitude": 40.75396,
    "longitude": -73.99342,
    "zipcode": "10018",
    "totalReviews": 37
  },
  {
    "cuisine": "Kosher",
    "id": "i38R1KxL99JoG-Ns7FyyGw",
    "name": "12 Chairs",
    "rating": 3.9,
    "address": "56 MacDougal St, New York, NY 10012",
    "phone": "+12122548640",
    "latitude": 40.72759,
    "longitude": -74.0024,
    "zipcode": "10012",
    "totalReviews": 1039
  },
  {
    "cuisine": "Kosher",
    "id": "AoZ_kDSEDKQvLISAfWkmCA",
    "name": "Hummus Kitchen",
    "rating": 3.9,
    "address": "444 3rd Ave, New York, NY 10016",
    "phone": "+12126960055",
    "latitude": 40.743718,
    "longitude": -73.979859,
    "zipcode": "10016",
    "totalReviews": 384
  },
  {
    "cuisine": "Continental",
    "id": "cOkmmlZw0f-qrfEif1HgRw",
    "name": "Continental Restaurant",
    "rating": 5.0,
    "address": "11 Newell St, Brooklyn, NY 11222",
    "phone": "+17183892207",
    "latitude": 40.723141,
    "longitude": -73.946719,
    "zipcode": "11222",
    "totalReviews": 1
  },
  {
    "cuisine": "Continental",
    "id": "Q-w1wL-HA2RLgRWseeqsDA",
    "name": "El Continental Restaurant",
    "rating": 3.6,
    "address": "672 5th Ave, Brooklyn, NY 11215",
    "phone": "+17188321327",
    "latitude": 40.66211,
    "longitude": -73.99288,
    "zipcode": "11215",
    "totalReviews": 69
  },
  {
    "cuisine": "Continental",
    "id": "Axyh4tTY4dvGDJhIVBoALQ",
    "name": "Continental Foods Express",
    "rating": 4.2,
    "address": "9024 Tonnelle Ave, North Bergen, NJ 07047",
    "phone": "+12018611743",
    "latitude": 40.813096,
    "longitude": -74.010561,
    "zipcode": "07047",
    "totalReviews": 5
  },
  {
    "cuisine": "Continental",
    "id": "6gPTgbbfQ8s4g-V6o80Bbw",
    "name": "Continental Luncheonette & Deli",
    "rating": 4.6,
    "address": "10403 Metropolitan Ave, Forest Hills, NY 11375",
    "phone": "+17185208336",
    "latitude": 40.7103229233496,
    "longitude": -73.848704919219,
    "zipcode": "11375",
    "totalReviews": 33
  },
  {
    "cuisine": "Continental",
    "id": "WxB8498ejPtHE7wFa89_fA",
    "name": "The Continental Mid-town",
    "rating": 3.7,
    "address": "1801 Chestnut St, Philadelphia, PA 19103",
    "phone": "+12155671800",
    "latitude": 39.951902,
    "longitude": -75.170453,
    "zipcode": "19103",
    "totalReviews": 1950
  },
  {
    "cuisine": "Continental",
    "id": "tpxMTuzDG42JuXK5phmxMQ",
    "name": "The Langham, New York, Fifth Avenue",
    "rating": 4.6,
    "address": "400 5th Ave, New York, NY 10018",
    "phone": "+12126954005",
    "latitude": 40.75018325206747,
    "longitude": -73.98375902239195,
    "zipcode": "10018",
    "totalReviews": 134
  },
  {
    "cuisine": "Continental",
    "id": "wCWe6cMLyVaQ62FfkdMMIQ",
    "name": "La Quinta Inn & Suites by Wyndham Times Square South",
    "rating": 4.5,
    "address": "333 W 38th St, New York, NY 10018",
    "phone": "+17186903294",
    "latitude": 40.75555297932655,
    "longitude": -73.99303636645806,
    "zipcode": "10018",
    "totalReviews": 15
  },
  {
    "cuisine": "Continental",
    "id": "U2c3OjUrsKu42h_xkvz5Tw",
    "name": "Merrion Row Hotel and Public House",
    "rating": 4.5,
    "address": "119 W 45th St, New York, NY 10036",
    "phone": "+12124614920",
    "latitude": 40.75723,
    "longitude": -73.9835499,
    "zipcode": "10036",
    "totalReviews": 71
  },
  {
    "cuisine": "Continental",
    "id": "qLL_x4uzDHCgXd9lwaGxjw",
    "name": "Frevo",
    "rating": 4.5,
    "address": "48 W 8th St, New York, NY 10011",
    "phone": "+16464550804",
    "latitude": 40.73313,
    "longitude": -73.99867,
    "zipcode": "10011",
    "totalReviews": 109
  },
  {
    "cuisine": "Continental",
    "id": "NVsI5DRm1CszltskWJvvZQ",
    "name": "Hotel Giraffe",
    "rating": 4.5,
    "address": "365 Park Ave S, New York, NY 10016",
    "phone": "+12126857700",
    "latitude": 40.742169623078134,
    "longitude": -73.98473105310612,
    "zipcode": "10016",
    "totalReviews": 222
  },
  {
    "cuisine": "Continental",
    "id": "A_YpTLbAlEqeLVSs9bxbEA",
    "name": "Club A Steakhouse",
    "rating": 4.5,
    "address": "240 E 58th St, New York, NY 10022",
    "phone": "+12126884190",
    "latitude": 40.760074,
    "longitude": -73.965574,
    "zipcode": "10022",
    "totalReviews": 3519
  },
  {
    "cuisine": "Continental",
    "id": "Lh-BWBcgFfHi6-zxFhqShg",
    "name": "The Pearl Hotel",
    "rating": 4.5,
    "address": "233 W 49th, New York, NY 10019",
    "phone": "+12122454000",
    "latitude": 40.76146509783486,
    "longitude": -73.9855281,
    "zipcode": "10019",
    "totalReviews": 164
  },
  {
    "cuisine": "Continental",
    "id": "DGhWO1sUWydVeR5j5ZZaMw",
    "name": "La Grande Boucherie",
    "rating": 4.4,
    "address": "145 W 53rd St, New York, NY 10019",
    "phone": "+12125107714",
    "latitude": 40.7626274,
    "longitude": -73.98084109999999,
    "zipcode": "10019",
    "totalReviews": 3858
  },
  {
    "cuisine": "Continental",
    "id": "qZewWn4-pdd4JfoJSBV1QA",
    "name": "Library Hotel by Library Hotel Collection",
    "rating": 4.4,
    "address": "299 Madison Ave, New York, NY 10017",
    "phone": "+12129834500",
    "latitude": 40.75218,
    "longitude": -73.97954,
    "zipcode": "10017",
    "totalReviews": 158
  },
  {
    "cuisine": "Continental",
    "id": "cUyfnb3E7HvzNfbTgTjl_Q",
    "name": "Despa\u00f1a Fine Foods & Tapas Cafe",
    "rating": 4.4,
    "address": "408 Broome St, New York, NY 10013",
    "phone": "+12122195050",
    "latitude": 40.721094,
    "longitude": -73.9978255,
    "zipcode": "10013",
    "totalReviews": 621
  },
  {
    "cuisine": "Continental",
    "id": "ZRi2Bx0eeaA602-Vep12Bg",
    "name": "San Carlos Hotel",
    "rating": 4.4,
    "address": "150 E 50th St, New York, NY 10022",
    "phone": "+12127551800",
    "latitude": 40.75603,
    "longitude": -73.97149,
    "zipcode": "10022",
    "totalReviews": 72
  },
  {
    "cuisine": "Continental",
    "id": "DBX3V7fuLQ8lCvK5-mQTpg",
    "name": "Hotel Elys\u00e9e",
    "rating": 4.4,
    "address": "60 E 54th St, New York, NY 10022",
    "phone": "+12127531066",
    "latitude": 40.75998,
    "longitude": -73.97313,
    "zipcode": "10022",
    "totalReviews": 87
  },
  {
    "cuisine": "Continental",
    "id": "AUIyuc1nqTi1F2ZObs8-Hw",
    "name": "Cosmopolitan Club",
    "rating": 4.3,
    "address": "122 E 66th St, New York, NY 10021",
    "phone": "+12127345950",
    "latitude": 40.766745954752,
    "longitude": -73.9654326438904,
    "zipcode": "10021",
    "totalReviews": 6
  },
  {
    "cuisine": "Continental",
    "id": "J4pAppaiXwCkbLOGc4wHww",
    "name": "Raines Law Room",
    "rating": 4.3,
    "address": "48 W 17th St, New York, NY 10011",
    "phone": "",
    "latitude": 40.73879801954541,
    "longitude": -73.99453824181653,
    "zipcode": "10011",
    "totalReviews": 1637
  },
  {
    "cuisine": "Continental",
    "id": "zuMUWAduEq4COEcbnZ3XCA",
    "name": "Park Hyatt New York",
    "rating": 4.3,
    "address": "153 West 57th St, New York, NY 10019",
    "phone": "+16467741234",
    "latitude": 40.76539,
    "longitude": -73.97896,
    "zipcode": "10019",
    "totalReviews": 178
  },
  {
    "cuisine": "Continental",
    "id": "v0x-DrmcLuXCACx2HrfZVQ",
    "name": "The Carnegie Hotel",
    "rating": 4.2,
    "address": "160 W 56th St, New York, NY 10019",
    "phone": "+12123976000",
    "latitude": 40.7645399,
    "longitude": -73.98006,
    "zipcode": "10019",
    "totalReviews": 38
  },
  {
    "cuisine": "Continental",
    "id": "tmzWZtu9Nimn7Hfas9XmcA",
    "name": "Quality Bistro",
    "rating": 4.2,
    "address": "120 W 55th St, New York, NY 10019",
    "phone": "+12124333330",
    "latitude": 40.763182,
    "longitude": -73.979149,
    "zipcode": "10019",
    "totalReviews": 516
  },
  {
    "cuisine": "Continental",
    "id": "BPo5XByMdNiXK_i--gqiRA",
    "name": "Duomo51",
    "rating": 4.2,
    "address": "25 W 51st St, Fl 7, New York, NY 10019",
    "phone": "+16463988098",
    "latitude": 40.7599,
    "longitude": -73.97823,
    "zipcode": "10019",
    "totalReviews": 163
  },
  {
    "cuisine": "Continental",
    "id": "kP4k-GO4ETgstvNug3q31g",
    "name": "414 Hotel",
    "rating": 4.2,
    "address": "414 W 46th St, New York, NY 10036",
    "phone": "+12123990006",
    "latitude": 40.76118,
    "longitude": -73.99182,
    "zipcode": "10036",
    "totalReviews": 62
  },
  {
    "cuisine": "Continental",
    "id": "-lwM22gXY5_1pBv7YQu8kg",
    "name": "Carnegie Club",
    "rating": 4.2,
    "address": "156 West 56th St, New York, NY 10019",
    "phone": "+12129579676",
    "latitude": 40.7644892,
    "longitude": -73.9801211,
    "zipcode": "10019",
    "totalReviews": 331
  },
  {
    "cuisine": "Continental",
    "id": "0tYMltweY813Iicd8NKATA",
    "name": "The Bernic Hotel New York City, Tapestry Collection by Hilton",
    "rating": 4.2,
    "address": "145 147 East 47th St, New York City, NY 10017",
    "phone": "+12127549700",
    "latitude": 40.754407,
    "longitude": -73.97263099999999,
    "zipcode": "10017",
    "totalReviews": 108
  },
  {
    "cuisine": "Continental",
    "id": "wr4yApe97nqETNqJJMrHsg",
    "name": "The Pierre",
    "rating": 4.2,
    "address": "2 E 61st St, New York, NY 10065",
    "phone": "+12128388000",
    "latitude": 40.765242,
    "longitude": -73.972014,
    "zipcode": "10065",
    "totalReviews": 180
  },
  {
    "cuisine": "Continental",
    "id": "fA7iFSxoIQXcCcxSwL5oHw",
    "name": "Mandarin Oriental - New York",
    "rating": 4.2,
    "address": "80 Columbus Cir, New York, NY 10023",
    "phone": "+12128058800",
    "latitude": 40.76847,
    "longitude": -73.98309,
    "zipcode": "10023",
    "totalReviews": 236
  },
  {
    "cuisine": "Continental",
    "id": "QbIwccP-ycbVxwSt-LySFw",
    "name": "Club Macanudo",
    "rating": 4.1,
    "address": "26 E 63rd St, New York, NY 10021",
    "phone": "+12127528200",
    "latitude": 40.7659506265448,
    "longitude": -73.9693435220428,
    "zipcode": "10021",
    "totalReviews": 221
  },
  {
    "cuisine": "Continental",
    "id": "5ZEFbq_AQV5VQFG2JKYzlA",
    "name": "Giorgio's of Gramercy",
    "rating": 4.1,
    "address": "27 E 21st St, New York, NY 10010",
    "phone": "+12124770007",
    "latitude": 40.7394209879325,
    "longitude": -73.9885425567627,
    "zipcode": "10010",
    "totalReviews": 843
  },
  {
    "cuisine": "Continental",
    "id": "4o2SqXHODe7ZEP7aqzdeug",
    "name": "The Iroquois New York",
    "rating": 4.1,
    "address": "49 W 44th St, New York, NY 10036",
    "phone": "+12128403080",
    "latitude": 40.75583,
    "longitude": -73.9821599,
    "zipcode": "10036",
    "totalReviews": 124
  },
  {
    "cuisine": "Continental",
    "id": "EKjqSwmhfJFFQQxAJttotQ",
    "name": "The Grand Salon and The Bar",
    "rating": 4.1,
    "address": "28 W 53rd St, Fl 2, Baccarat Hotel, New York, NY 10019",
    "phone": "+12127908867",
    "latitude": 40.76082,
    "longitude": -73.977401,
    "zipcode": "10019",
    "totalReviews": 11
  },
  {
    "cuisine": "Continental",
    "id": "13jzN6n45XtcbYA46nWThg",
    "name": "The Bar Downstairs and Kitchen",
    "rating": 4.1,
    "address": "485 5th Ave, New York, NY 10017",
    "phone": "+12126011234",
    "latitude": 40.752826,
    "longitude": -73.980942,
    "zipcode": "10017",
    "totalReviews": 408
  },
  {
    "cuisine": "Continental",
    "id": "y5b85IZGLxNdksDBFm1GBw",
    "name": "Gene's Restaurant",
    "rating": 4.1,
    "address": "73 W 11th St, New York, NY 10011",
    "phone": "+12126752048",
    "latitude": 40.735408782959,
    "longitude": -73.9977264404297,
    "zipcode": "10011",
    "totalReviews": 127
  },
  {
    "cuisine": "Continental",
    "id": "T8hRtRz3Q50VC8DX9NRfDg",
    "name": "The St. Regis New York",
    "rating": 4.1,
    "address": "Two East 55th Street At Fifth Ave, New York, NY 10022",
    "phone": "+12127534500",
    "latitude": 40.76136,
    "longitude": -73.97443,
    "zipcode": "10022",
    "totalReviews": 272
  },
  {
    "cuisine": "Continental",
    "id": "Hzuuu4NB0IkqaowKk75KYw",
    "name": "Hotel Scherman",
    "rating": 4.1,
    "address": "346 W 46th St, New York, NY 10036",
    "phone": "+12123596652",
    "latitude": 40.760391,
    "longitude": -73.989687,
    "zipcode": "10036",
    "totalReviews": 39
  },
  {
    "cuisine": "Continental",
    "id": "K5rgmQy_4WiOXY_9A-QorA",
    "name": "Sanctuary Hotel New York",
    "rating": 4.1,
    "address": "132 W 47th St, New York, NY 10036",
    "phone": "+12122347000",
    "latitude": 40.75837,
    "longitude": -73.9832957,
    "zipcode": "10036",
    "totalReviews": 212
  },
  {
    "cuisine": "Continental",
    "id": "4XX-zF8h5Lvrr22_tqU6-Q",
    "name": "The River Caf\u00e9",
    "rating": 4.1,
    "address": "1 Water St, Brooklyn, NY 11201",
    "phone": "+17185225200",
    "latitude": 40.703866713051106,
    "longitude": -73.99479360219303,
    "zipcode": "11201",
    "totalReviews": 1368
  },
  {
    "cuisine": "Continental",
    "id": "228DO__YwYmliMx6Q5jTtw",
    "name": "Turco Mediterranean Grill",
    "rating": 4.0,
    "address": "604 9th Ave, New York, NY 10036",
    "phone": "+12125108666",
    "latitude": 40.75913,
    "longitude": -73.9918,
    "zipcode": "10036",
    "totalReviews": 667
  },
  {
    "cuisine": "Continental",
    "id": "C56chiGa56B-hwM4JYS4BA",
    "name": "The Ritz-Carlton New York, Central Park",
    "rating": 4.0,
    "address": "50 Central Park S, New York, NY 10019",
    "phone": "+12123089100",
    "latitude": 40.76525,
    "longitude": -73.97604,
    "zipcode": "10019",
    "totalReviews": 217
  },
  {
    "cuisine": "Continental",
    "id": "lot1WtUC2qYsCuL7QMgq0A",
    "name": "Kimpton Hotel Eventi",
    "rating": 4.0,
    "address": "851 Avenue Of The Americas, New York, NY 10001",
    "phone": "+12125644567",
    "latitude": 40.74703,
    "longitude": -73.99003,
    "zipcode": "10001",
    "totalReviews": 491
  },
  {
    "cuisine": "Continental",
    "id": "6QV90tGuU3go2NtUMQJ4kg",
    "name": "Hotel Onyx",
    "rating": 5.0,
    "address": "610 42nd, New York, NY 10036",
    "phone": "",
    "latitude": 40.76097,
    "longitude": -73.99906,
    "zipcode": "10036",
    "totalReviews": 1
  },
  {
    "cuisine": "Continental",
    "id": "8lWWKCr6Qo56WfPbefy5Gg",
    "name": "Concorde Hotel New York",
    "rating": 4.0,
    "address": "127 E 55th St, New York, NY 10022",
    "phone": "+12123552755",
    "latitude": 40.7600087,
    "longitude": -73.9704053,
    "zipcode": "10022",
    "totalReviews": 35
  },
  {
    "cuisine": "Continental",
    "id": "5X1wTxAD7Knl8_xdsL2Hiw",
    "name": "Hilton Club The Residences New York",
    "rating": 4.0,
    "address": "1335 Avenue Of The Americas44th, Fl, New York, NY 10019",
    "phone": "+16464596565",
    "latitude": 40.762498,
    "longitude": -73.979527,
    "zipcode": "10019",
    "totalReviews": 10
  },
  {
    "cuisine": "Continental",
    "id": "bOymfxvsORTOirEO41gwYA",
    "name": "Michelangelo Lounge",
    "rating": 5.0,
    "address": "152 W 51st St, Michelangelo Hotel, New York, NY 10019",
    "phone": "+12127651900",
    "latitude": 40.7611809,
    "longitude": -73.981926,
    "zipcode": "10019",
    "totalReviews": 1
  },
  {
    "cuisine": "Continental",
    "id": "C-8mGN7lt5rIraO5n-15ug",
    "name": "The Smith",
    "rating": 4.0,
    "address": "956 2nd Ave, New York, NY 10022",
    "phone": "+12126442700",
    "latitude": 40.75520199,
    "longitude": -73.96798699,
    "zipcode": "10022",
    "totalReviews": 3276
  },
  {
    "cuisine": "Continental",
    "id": "F0MuzanyO6YEen8VtP5LOg",
    "name": "Pennsylvania 6 NYC",
    "rating": 4.0,
    "address": "132 W 31st St, New York, NY 10001",
    "phone": "+12127273666",
    "latitude": 40.7483655239542,
    "longitude": -73.9907944748688,
    "zipcode": "10001",
    "totalReviews": 657
  },
  {
    "cuisine": "Continental",
    "id": "jzQNE09rRKz8Ou-bEdEY1Q",
    "name": "The Grey Dog - Nolita",
    "rating": 4.0,
    "address": "244 Mulberry St, New York, NY 10012",
    "phone": "+12129661060",
    "latitude": 40.7229699,
    "longitude": -73.99576,
    "zipcode": "10012",
    "totalReviews": 756
  },
  {
    "cuisine": "Continental",
    "id": "kumbWukbwNktxWQB4_FvDQ",
    "name": "Courtyard by Marriott New York Manhattan/Times Square West",
    "rating": 4.0,
    "address": "307 West 37th Street (West 37th Street & 8th Avenue), New York, NY 10018",
    "phone": "+18558166193",
    "latitude": 40.754518,
    "longitude": -73.992566,
    "zipcode": "10018",
    "totalReviews": 123
  },
  {
    "cuisine": "Continental",
    "id": "htWCcFI5R5Cuwod5PNSpow",
    "name": "1 Hotel Central Park",
    "rating": 4.0,
    "address": "1414 6th Ave, New York, NY 10019",
    "phone": "+12127032001",
    "latitude": 40.764825248014496,
    "longitude": -73.97651885904463,
    "zipcode": "10019",
    "totalReviews": 171
  }
]